[
  {
    "city": "Delhi",
    "lat": "28.6600",
    "lng": "77.2300",
    "country": "India",
    "iso2": "IN",
    "admin_name": "Delhi",
    "capital": "admin",
    "population": "29617000",
    "population_proper": "16753235",
    "search": "दिल्ली"
  },
  {
    "city": "Mumbai",
    "lat": "18.9667",
    "lng": "72.8333",
    "country": "India",
    "iso2": "IN",
    "admin_name": "Maharashtra",
    "capital": "admin",
    "population": "23355000",
    "population_proper": "12478447",
    "search": "मुंबई"
  },
  {
    "city": "Kolkata",
    "lat": "22.5411",
    "lng": "88.3378",
    "country": "India",
    "iso2": "IN",
    "admin_name": "West Bengal",
    "capital": "admin",
    "population": "17560000",
    "population_proper": "4496694",
    "search": "কলকাতা"
  },
  {
    "city": "Bangalore",
    "lat": "12.9699",
    "lng": "77.5980",
    "country": "India",
    "iso2": "IN",
    "admin_name": "Karnataka",
    "capital": "admin",
    "population": "13707000",
    "population_proper": "8443675",
    "search": "ಬ್ಯಾಂಗಲೋರ್"
  },
  {
    "city": "Chennai",
    "lat": "13.0825",
    "lng": "80.2750",
    "country": "India",
    "iso2": "IN",
    "admin_name": "Tamil Nadu",
    "capital": "admin",
    "population": "11324000",
    "population_proper": "6727000",
    "search": "சென்னை"
  },
  {
    "city": "Hyderabad",
    "lat": "17.3667",
    "lng": "78.4667",
    "country": "India",
    "iso2": "IN",
    "admin_name": "Telangana",
    "capital": "admin",
    "population": "9746000",
    "population_proper": "6993262",
    "search": "హైదరాబాద్"
  },
  {
    "city": "Pune",
    "lat": "18.5196",
    "lng": "73.8553",
    "country": "India",
    "iso2": "IN",
    "admin_name": "Maharashtra",
    "capital": "",
    "population": "7764000",
    "population_proper": "3124458",
    "search": "पुणे"
  },
  {
    "city": "Ahmedabad",
    "lat": "23.0300",
    "lng": "72.5800",
    "country": "India",
    "iso2": "IN",
    "admin_name": "Gujarat",
    "capital": "minor",
    "population": "7410000",
    "population_proper": "5570585",
    "search": "હમેદાબાદ"
  },
  {
    "city": "Surat",
    "lat": "21.1700",
    "lng": "72.8300",
    "country": "India",
    "iso2": "IN",
    "admin_name": "Gujarat",
    "capital": "",
    "population": "5807000",
    "population_proper": "4466826",
    "search": "સુરત"
  },
  {
    "city": "Lucknow",
    "lat": "26.8470",
    "lng": "80.9470",
    "country": "India",
    "iso2": "IN",
    "admin_name": "Uttar Pradesh",
    "capital": "admin",
    "population": "3382000",
    "population_proper": "3382000",
    "search": "लखनऊ"
  },
  {
    "city": "Jaipur",
    "lat": "26.9167",
    "lng": "75.8667",
    "country": "India",
    "iso2": "IN",
    "admin_name": "Rajasthan",
    "capital": "admin",
    "population": "3073350",
    "population_proper": "3073350",
    "search": "जयपुर"
  },
  {
    "city": "Cawnpore",
    "lat": "26.4725",
    "lng": "80.3311",
    "country": "India",
    "iso2": "IN",
    "admin_name": "Uttar Pradesh",
    "capital": "",
    "population": "2701324",
    "population_proper": "2701324",
    "search": "कॉनपोरे"
  },
  {
    "city": "Mirzapur",
    "lat": "25.1500",
    "lng": "82.5800",
    "country": "India",
    "iso2": "IN",
    "admin_name": "Uttar Pradesh",
    "capital": "",
    "population": "2496970",
    "population_proper": "2496970",
    "search": "मिर्ज़ापुर"
  },
  {
    "city": "Nagpur",
    "lat": "21.1539",
    "lng": "79.0831",
    "country": "India",
    "iso2": "IN",
    "admin_name": "Maharashtra",
    "capital": "",
    "population": "2405665",
    "population_proper": "2405665",
    "search": "नागपूर"
  },
  {
    "city": "Ghaziabad",
    "lat": "28.6667",
    "lng": "77.4167",
    "country": "India",
    "iso2": "IN",
    "admin_name": "Uttar Pradesh",
    "capital": "",
    "population": "2381452",
    "population_proper": "2381452",
    "search": "ग़ज़िआबाद"
  },
  {
    "city": "Indore",
    "lat": "22.7206",
    "lng": "75.8472",
    "country": "India",
    "iso2": "IN",
    "admin_name": "Madhya Pradesh",
    "capital": "",
    "population": "2201927",
    "population_proper": "2201927",
    "search": "इंदौर"
  },
  {
    "city": "Vadodara",
    "lat": "22.3000",
    "lng": "73.2000",
    "country": "India",
    "iso2": "IN",
    "admin_name": "Gujarat",
    "capital": "",
    "population": "2065771",
    "population_proper": "2065771",
    "search": "વડોદરા"
  },
  {
    "city": "Vishakhapatnam",
    "lat": "17.7333",
    "lng": "83.3167",
    "country": "India",
    "iso2": "IN",
    "admin_name": "Andhra Pradesh",
    "capital": "",
    "population": "2035922",
    "population_proper": "2035922",
    "search": "విశాఖపట్నం"
  },
  {
    "city": "Bhopal",
    "lat": "23.2500",
    "lng": "77.4167",
    "country": "India",
    "iso2": "IN",
    "admin_name": "Madhya Pradesh",
    "capital": "admin",
    "population": "1883381",
    "population_proper": "1883381",
    "search": "भोपाल"
  },
  {
    "city": "Chinchvad",
    "lat": "18.6278",
    "lng": "73.8131",
    "country": "India",
    "iso2": "IN",
    "admin_name": "Maharashtra",
    "capital": "",
    "population": "1729320",
    "population_proper": "1729320",
    "search": "चिंचवड"
  },
  {
    "city": "Patna",
    "lat": "25.6100",
    "lng": "85.1414",
    "country": "India",
    "iso2": "IN",
    "admin_name": "Bihar",
    "capital": "admin",
    "population": "1684222",
    "population_proper": "1684222",
    "search": "पटना"
  },
  {
    "city": "Ludhiana",
    "lat": "30.9083",
    "lng": "75.8486",
    "country": "India",
    "iso2": "IN",
    "admin_name": "Punjab",
    "capital": "",
    "population": "1649000",
    "population_proper": "1545368",
    "search": "ਲੁਧਿਆਣਾ"
  },
  {
    "city": "agra",
    "lat": "27.1800",
    "lng": "78.0200",
    "country": "India",
    "iso2": "IN",
    "admin_name": "Uttar Pradesh",
    "capital": "",
    "population": "1585705",
    "population_proper": "1585705",
    "search": "आगरा"
  },
  {
    "city": "Kalyan",
    "lat": "19.2502",
    "lng": "73.1602",
    "country": "India",
    "iso2": "IN",
    "admin_name": "Maharashtra",
    "capital": "",
    "population": "1576614",
    "population_proper": "1576614",
    "search": "कल्याण"
  },
  {
    "city": "Madurai",
    "lat": "9.9197",
    "lng": "78.1194",
    "country": "India",
    "iso2": "IN",
    "admin_name": "Tamil Nadu",
    "capital": "minor",
    "population": "1561129",
    "population_proper": "1561129",
    "search": "மதுரை"
  },
  {
    "city": "Jamshedpur",
    "lat": "22.8000",
    "lng": "86.1833",
    "country": "India",
    "iso2": "IN",
    "admin_name": "Jharkhand",
    "capital": "",
    "population": "1558000",
    "population_proper": "1558000",
    "search": "जमशेदपुर"
  },
  {
    "city": "Nasik",
    "lat": "20.0000",
    "lng": "73.7833",
    "country": "India",
    "iso2": "IN",
    "admin_name": "Maharashtra",
    "capital": "",
    "population": "1486053",
    "population_proper": "1486053",
    "search": "नासिक"
  },
  {
    "city": "Faridabad",
    "lat": "28.4333",
    "lng": "77.3167",
    "country": "India",
    "iso2": "IN",
    "admin_name": "Haryana",
    "capital": "",
    "population": "1394000",
    "population_proper": "1394000",
    "search": "फरीदाबाद"
  },
  {
    "city": "Aurangabad",
    "lat": "19.8800",
    "lng": "75.3200",
    "country": "India",
    "iso2": "IN",
    "admin_name": "Maharashtra",
    "capital": "",
    "population": "1371330",
    "population_proper": "1371330",
    "search": "औरंगाबाद"
  },
  {
    "city": "Rajkot",
    "lat": "22.2969",
    "lng": "70.7984",
    "country": "India",
    "iso2": "IN",
    "admin_name": "Gujarat",
    "capital": "",
    "population": "1335397",
    "population_proper": "1335397",
    "search": "રાજકોટ"
  },
  {
    "city": "Meerut",
    "lat": "28.9900",
    "lng": "77.7000",
    "country": "India",
    "iso2": "IN",
    "admin_name": "Uttar Pradesh",
    "capital": "",
    "population": "1305429",
    "population_proper": "1305429",
    "search": "मीरुत"
  },
  {
    "city": "Jabalpur",
    "lat": "23.1667",
    "lng": "79.9333",
    "country": "India",
    "iso2": "IN",
    "admin_name": "Madhya Pradesh",
    "capital": "",
    "population": "1267564",
    "population_proper": "1267564",
    "search": "जबलपुर"
  },
  {
    "city": "Thane",
    "lat": "19.1800",
    "lng": "72.9633",
    "country": "India",
    "iso2": "IN",
    "admin_name": "Maharashtra",
    "capital": "",
    "population": "1261517",
    "population_proper": "1261517",
    "search": "ठाणे"
  },
  {
    "city": "Dhanbad",
    "lat": "23.7928",
    "lng": "86.4350",
    "country": "India",
    "iso2": "IN",
    "admin_name": "Jharkhand",
    "capital": "",
    "population": "1246000",
    "population_proper": "219636",
    "search": "धनबाद"
  },
  {
    "city": "Allahabad",
    "lat": "25.4550",
    "lng": "81.8400",
    "country": "India",
    "iso2": "IN",
    "admin_name": "Uttar Pradesh",
    "capital": "",
    "population": "1201000",
    "population_proper": "1073438",
    "search": "अल्लाहाबाद"
  },
  {
    "city": "Varanasi",
    "lat": "25.3189",
    "lng": "83.0128",
    "country": "India",
    "iso2": "IN",
    "admin_name": "Uttar Pradesh",
    "capital": "",
    "population": "1198491",
    "population_proper": "1198491",
    "search": "वाराणसी"
  },
  {
    "city": "Srinagar",
    "lat": "34.0911",
    "lng": "74.8061",
    "country": "India",
    "iso2": "IN",
    "admin_name": "Jammu and Kashmir",
    "capital": "admin",
    "population": "1180570",
    "population_proper": "1180570",
    "search": "श्रीनगर"
  },
  {
    "city": "Amritsar",
    "lat": "31.6167",
    "lng": "74.8500",
    "country": "India",
    "iso2": "IN",
    "admin_name": "Punjab",
    "capital": "",
    "population": "1132383",
    "population_proper": "1132383",
    "search": "ਅੰਮ੍ਰਿਤਸਰ"
  },
  {
    "city": "Aligarh",
    "lat": "27.8800",
    "lng": "78.0800",
    "country": "India",
    "iso2": "IN",
    "admin_name": "Uttar Pradesh",
    "capital": "",
    "population": "1131160",
    "population_proper": "1131160",
    "search": "अलीगढ"
  },
  {
    "city": "Bhiwandi",
    "lat": "19.3000",
    "lng": "73.0667",
    "country": "India",
    "iso2": "IN",
    "admin_name": "Maharashtra",
    "capital": "",
    "population": "1125898",
    "population_proper": "1125898",
    "search": "भिवंडी"
  },
  {
    "city": "Gwalior",
    "lat": "26.2150",
    "lng": "78.1931",
    "country": "India",
    "iso2": "IN",
    "admin_name": "Madhya Pradesh",
    "capital": "",
    "population": "1101981",
    "population_proper": "1101981",
    "search": "ग्वालियर"
  },
  {
    "city": "Bhilai",
    "lat": "21.2167",
    "lng": "81.4333",
    "country": "India",
    "iso2": "IN",
    "admin_name": "Chhattisgarh",
    "capital": "",
    "population": "1097000",
    "population_proper": "1097000",
    "search": "भिलाई"
  },
  {
    "city": "Haora",
    "lat": "22.5900",
    "lng": "88.3100",
    "country": "India",
    "iso2": "IN",
    "admin_name": "West Bengal",
    "capital": "",
    "population": "1077075",
    "population_proper": "1077075",
    "search": "হাওড়া"
  },
  {
    "city": "Ranchi",
    "lat": "23.3556",
    "lng": "85.3347",
    "country": "India",
    "iso2": "IN",
    "admin_name": "Jharkhand",
    "capital": "admin",
    "population": "1073440",
    "population_proper": "1073440",
    "search": "रांची"
  },
  {
    "city": "Bezwada",
    "lat": "16.5167",
    "lng": "80.6167",
    "country": "India",
    "iso2": "IN",
    "admin_name": "Andhra Pradesh",
    "capital": "",
    "population": "1048240",
    "population_proper": "1048240",
    "search": "బెజవాడ"
  },
  {
    "city": "Chandigarh",
    "lat": "30.7353",
    "lng": "76.7911",
    "country": "India",
    "iso2": "IN",
    "admin_name": "Chandigarh",
    "capital": "admin",
    "population": "1026459",
    "population_proper": "1026459",
    "search": "ਚੰਡੀਗੜ੍ਹ"
  },
  {
    "city": "Mysore",
    "lat": "12.3086",
    "lng": "76.6531",
    "country": "India",
    "iso2": "IN",
    "admin_name": "Karnataka",
    "capital": "",
    "population": "1014227",
    "population_proper": "1014227",
    "search": "ಮೈಸೂರ್"
  },
  {
    "city": "Raipur",
    "lat": "21.2379",
    "lng": "81.6337",
    "country": "India",
    "iso2": "IN",
    "admin_name": "Chhattisgarh",
    "capital": "admin",
    "population": "1010087",
    "population_proper": "1010087",
    "search": "रायपुर"
  },
  {
    "city": "Kota",
    "lat": "25.1800",
    "lng": "75.8300",
    "country": "India",
    "iso2": "IN",
    "admin_name": "Rajasthan",
    "capital": "",
    "population": "1001694",
    "population_proper": "1001694",
    "search": "कोटा"
  },
  {
    "city": "Bareilly",
    "lat": "28.3640",
    "lng": "79.4150",
    "country": "India",
    "iso2": "IN",
    "admin_name": "Uttar Pradesh",
    "capital": "",
    "population": "1000000",
    "population_proper": "1000000",
    "search": "बरैली"
  },
  {
    "city": "Jodhpur",
    "lat": "26.2918",
    "lng": "73.0168",
    "country": "India",
    "iso2": "IN",
    "admin_name": "Rajasthan",
    "capital": "",
    "population": "995000",
    "population_proper": "921476",
    "search": "जोधपुर"
  },
  {
    "city": "Coimbatore",
    "lat": "11.0000",
    "lng": "76.9667",
    "country": "India",
    "iso2": "IN",
    "admin_name": "Tamil Nadu",
    "capital": "",
    "population": "959823",
    "population_proper": "959823",
    "search": "கோவை"
  },
  {
    "city": "Dispur",
    "lat": "26.1500",
    "lng": "91.7700",
    "country": "India",
    "iso2": "IN",
    "admin_name": "Assam",
    "capital": "admin",
    "population": "957352",
    "population_proper": "957352",
    "search": "দিছ্পুৰ"
  },
  {
    "city": "Guwahati",
    "lat": "26.1667",
    "lng": "91.7667",
    "country": "India",
    "iso2": "IN",
    "admin_name": "Assam",
    "capital": "",
    "population": "957352",
    "population_proper": "957352",
    "search": "গুৱাহাটী"
  },
  {
    "city": "Solapur",
    "lat": "17.6833",
    "lng": "75.9167",
    "country": "India",
    "iso2": "IN",
    "admin_name": "Maharashtra",
    "capital": "",
    "population": "951558",
    "population_proper": "951558",
    "search": "सोलापूर"
  },
  {
    "city": "Trichinopoly",
    "lat": "10.8269",
    "lng": "78.6928",
    "country": "India",
    "iso2": "IN",
    "admin_name": "Tamil Nadu",
    "capital": "",
    "population": "916857",
    "population_proper": "916857",
    "search": "த்ரிசினோபோலி"
  },
  {
    "city": "Hubli",
    "lat": "15.3600",
    "lng": "75.1250",
    "country": "India",
    "iso2": "IN",
    "admin_name": "Karnataka",
    "capital": "",
    "population": "890000",
    "population_proper": "792804",
    "search": "ಹುಬ್ಬಳ್ಳಿ"
  },
  {
    "city": "Jalandhar",
    "lat": "31.3256",
    "lng": "75.5792",
    "country": "India",
    "iso2": "IN",
    "admin_name": "Punjab",
    "capital": "",
    "population": "873725",
    "population_proper": "873725",
    "search": "ਜਲੰਧਰ"
  },
  {
    "city": "Bhubaneshwar",
    "lat": "20.2644",
    "lng": "85.8281",
    "country": "India",
    "iso2": "IN",
    "admin_name": "Odisha",
    "capital": "admin",
    "population": "837737",
    "population_proper": "837737",
    "search": "ଭୁବନେଶ୍ୱର"
  },
  {
    "city": "Bhayandar",
    "lat": "19.3000",
    "lng": "72.8500",
    "country": "India",
    "iso2": "IN",
    "admin_name": "Maharashtra",
    "capital": "",
    "population": "814655",
    "population_proper": "814655",
    "search": "भायंदर"
  },
  {
    "city": "Moradabad",
    "lat": "28.8418",
    "lng": "78.7568",
    "country": "India",
    "iso2": "IN",
    "admin_name": "Uttar Pradesh",
    "capital": "",
    "population": "787000",
    "population_proper": "721139",
    "search": "मोरादाबाद"
  },
  {
    "city": "Kolhapur",
    "lat": "16.7000",
    "lng": "74.2333",
    "country": "India",
    "iso2": "IN",
    "admin_name": "Maharashtra",
    "capital": "",
    "population": "750000",
    "population_proper": "561841",
    "search": "कोल्हापूर"
  },
  {
    "city": "Thiruvananthapuram",
    "lat": "8.5000",
    "lng": "76.8997",
    "country": "India",
    "iso2": "IN",
    "admin_name": "Kerala",
    "capital": "admin",
    "population": "743691",
    "population_proper": "743691",
    "search": "തിരുവനന്തപുരം"
  },
  {
    "city": "Saharanpur",
    "lat": "29.9640",
    "lng": "77.5460",
    "country": "India",
    "iso2": "IN",
    "admin_name": "Uttar Pradesh",
    "capital": "",
    "population": "705478",
    "population_proper": "705478",
    "search": "सहारनपुर"
  },
  {
    "city": "Warangal",
    "lat": "17.9756",
    "lng": "79.6011",
    "country": "India",
    "iso2": "IN",
    "admin_name": "Telangana",
    "capital": "",
    "population": "704570",
    "population_proper": "704570",
    "search": "వరంగల్"
  },
  {
    "city": "Salem",
    "lat": "11.6500",
    "lng": "78.1667",
    "country": "India",
    "iso2": "IN",
    "admin_name": "Tamil Nadu",
    "capital": "",
    "population": "693236",
    "population_proper": "693236",
    "search": "சேலம்"
  },
  {
    "city": "Malegaon",
    "lat": "20.5500",
    "lng": "74.5500",
    "country": "India",
    "iso2": "IN",
    "admin_name": "Maharashtra",
    "capital": "",
    "population": "690844",
    "population_proper": "435362",
    "search": "मालेगाव"
  },
  {
    "city": "Kochi",
    "lat": "9.9667",
    "lng": "76.2833",
    "country": "India",
    "iso2": "IN",
    "admin_name": "Kerala",
    "capital": "",
    "population": "677381",
    "population_proper": "677381",
    "search": "കൊച്ചി"
  },
  {
    "city": "Gorakhpur",
    "lat": "26.7611",
    "lng": "83.3667",
    "country": "India",
    "iso2": "IN",
    "admin_name": "Uttar Pradesh",
    "capital": "",
    "population": "673446",
    "population_proper": "673446",
    "search": "गोरखपुर"
  },
  {
    "city": "Shimoga",
    "lat": "13.9304",
    "lng": "75.5600",
    "country": "India",
    "iso2": "IN",
    "admin_name": "Karnataka",
    "capital": "",
    "population": "654055",
    "population_proper": "319550",
    "search": "ಶಿಮೊಗ"
  },
  {
    "city": "Tiruppur",
    "lat": "11.1075",
    "lng": "77.3398",
    "country": "India",
    "iso2": "IN",
    "admin_name": "Tamil Nadu",
    "capital": "",
    "population": "650000",
    "population_proper": "444543",
    "search": "திருப்பூர்"
  },
  {
    "city": "Guntur",
    "lat": "16.3000",
    "lng": "80.4500",
    "country": "India",
    "iso2": "IN",
    "admin_name": "Andhra Pradesh",
    "capital": "",
    "population": "647508",
    "population_proper": "647508",
    "search": "గుంటూరు"
  },
  {
    "city": "Raurkela",
    "lat": "22.2492",
    "lng": "84.8828",
    "country": "India",
    "iso2": "IN",
    "admin_name": "Odisha",
    "capital": "",
    "population": "625831",
    "population_proper": "483629",
    "search": "ରାଉରକେଲା"
  },
  {
    "city": "Mangalore",
    "lat": "12.8703",
    "lng": "74.8806",
    "country": "India",
    "iso2": "IN",
    "admin_name": "Karnataka",
    "capital": "",
    "population": "623841",
    "population_proper": "623841",
    "search": "ಮ್ಯಾಂಗಲೋರ್"
  },
  {
    "city": "Nanded",
    "lat": "19.1500",
    "lng": "77.3333",
    "country": "India",
    "iso2": "IN",
    "admin_name": "Maharashtra",
    "capital": "",
    "population": "623708",
    "population_proper": "550564",
    "search": "नांदेड"
  },
  {
    "city": "Cuttack",
    "lat": "20.4500",
    "lng": "85.8667",
    "country": "India",
    "iso2": "IN",
    "admin_name": "Odisha",
    "capital": "",
    "population": "606007",
    "population_proper": "606007",
    "search": "ଟକ"
  },
  {
    "city": "Chanda",
    "lat": "19.9500",
    "lng": "79.3000",
    "country": "India",
    "iso2": "IN",
    "admin_name": "Maharashtra",
    "capital": "",
    "population": "595118",
    "population_proper": "328351",
    "search": "छंद"
  },
  {
    "city": "Dehra Dun",
    "lat": "30.3180",
    "lng": "78.0290",
    "country": "India",
    "iso2": "IN",
    "admin_name": "Uttarakhand",
    "capital": "admin",
    "population": "578420",
    "population_proper": "578420",
    "search": "देहरा दून"
  },
  {
    "city": "Durgapur",
    "lat": "23.5500",
    "lng": "87.3200",
    "country": "India",
    "iso2": "IN",
    "admin_name": "West Bengal",
    "capital": "",
    "population": "566517",
    "population_proper": "566517",
    "search": "দুর্গাপুর"
  },
  {
    "city": "asansol",
    "lat": "23.6833",
    "lng": "86.9667",
    "country": "India",
    "iso2": "IN",
    "admin_name": "West Bengal",
    "capital": "",
    "population": "563917",
    "population_proper": "563917",
    "search": "আসানসোল"
  },
  {
    "city": "Bhavnagar",
    "lat": "21.7650",
    "lng": "72.1369",
    "country": "India",
    "iso2": "IN",
    "admin_name": "Gujarat",
    "capital": "",
    "population": "554978",
    "population_proper": "464602",
    "search": "ભાવનગર"
  },
  {
    "city": "Amravati",
    "lat": "20.9333",
    "lng": "77.7500",
    "country": "India",
    "iso2": "IN",
    "admin_name": "Maharashtra",
    "capital": "",
    "population": "549370",
    "population_proper": "549370",
    "search": "अमरावती"
  },
  {
    "city": "Nellore",
    "lat": "14.4333",
    "lng": "79.9667",
    "country": "India",
    "iso2": "IN",
    "admin_name": "Andhra Pradesh",
    "capital": "",
    "population": "547621",
    "population_proper": "547621",
    "search": "నెల్లూరు"
  },
  {
    "city": "Ajmer",
    "lat": "26.4680",
    "lng": "74.6390",
    "country": "India",
    "iso2": "IN",
    "admin_name": "Rajasthan",
    "capital": "",
    "population": "542321",
    "population_proper": "542321",
    "search": "अजमेर"
  },
  {
    "city": "Tinnevelly",
    "lat": "8.7289",
    "lng": "77.7081",
    "country": "India",
    "iso2": "IN",
    "admin_name": "Tamil Nadu",
    "capital": "",
    "population": "542200",
    "population_proper": "435844",
    "search": "டின்னெவெல்லி"
  },
  {
    "city": "Bikaner",
    "lat": "28.0181",
    "lng": "73.3169",
    "country": "India",
    "iso2": "IN",
    "admin_name": "Rajasthan",
    "capital": "",
    "population": "529007",
    "population_proper": "529007",
    "search": "बीकानेर"
  },
  {
    "city": "Agartala",
    "lat": "23.8333",
    "lng": "91.2667",
    "country": "India",
    "iso2": "IN",
    "admin_name": "Tripura",
    "capital": "admin",
    "population": "522613",
    "population_proper": "522613",
    "search": "আগরতলা"
  },
  {
    "city": "Ujjain",
    "lat": "23.1828",
    "lng": "75.7772",
    "country": "India",
    "iso2": "IN",
    "admin_name": "Madhya Pradesh",
    "capital": "",
    "population": "515215",
    "population_proper": "515215",
    "search": "उज्जैन"
  },
  {
    "city": "Jhansi",
    "lat": "25.4486",
    "lng": "78.5696",
    "country": "India",
    "iso2": "IN",
    "admin_name": "Uttar Pradesh",
    "capital": "",
    "population": "507000",
    "population_proper": "507000",
    "search": "झाँसी"
  },
  {
    "city": "Ulhasnagar",
    "lat": "19.2167",
    "lng": "73.1500",
    "country": "India",
    "iso2": "IN",
    "admin_name": "Maharashtra",
    "capital": "",
    "population": "506098",
    "population_proper": "506098",
    "search": "उल्हासनगर"
  },
  {
    "city": "Davangere",
    "lat": "14.4667",
    "lng": "75.9167",
    "country": "India",
    "iso2": "IN",
    "admin_name": "Karnataka",
    "capital": "",
    "population": "503564",
    "population_proper": "435125",
    "search": "ದಾವಣಗೆರೆ"
  },
  {
    "city": "Jammu",
    "lat": "32.7333",
    "lng": "74.8500",
    "country": "India",
    "iso2": "IN",
    "admin_name": "Jammu and Kashmir",
    "capital": "",
    "population": "502197",
    "population_proper": "502197",
    "search": "जम्मू"
  },
  {
    "city": "Belgaum",
    "lat": "15.8667",
    "lng": "74.5000",
    "country": "India",
    "iso2": "IN",
    "admin_name": "Karnataka",
    "capital": "",
    "population": "488157",
    "population_proper": "488157",
    "search": "ಬೆಳಗಾಂ"
  },
  {
    "city": "Gulbarga",
    "lat": "17.3333",
    "lng": "76.8333",
    "country": "India",
    "iso2": "IN",
    "admin_name": "Karnataka",
    "capital": "",
    "population": "483615",
    "population_proper": "481478",
    "search": "ಗುಲ್ಬರ್ಗ"
  },
  {
    "city": "Jamnagar",
    "lat": "22.4700",
    "lng": "70.0700",
    "country": "India",
    "iso2": "IN",
    "admin_name": "Gujarat",
    "capital": "",
    "population": "479920",
    "population_proper": "479920",
    "search": "જામનગર"
  },
  {
    "city": "Dhulia",
    "lat": "20.9000",
    "lng": "74.7833",
    "country": "India",
    "iso2": "IN",
    "admin_name": "Maharashtra",
    "capital": "",
    "population": "479073",
    "population_proper": "366980",
    "search": "धुळीचे"
  },
  {
    "city": "Gaya",
    "lat": "24.7500",
    "lng": "85.0167",
    "country": "India",
    "iso2": "IN",
    "admin_name": "Bihar",
    "capital": "",
    "population": "474093",
    "population_proper": "474093",
    "search": "गया"
  },
  {
    "city": "Jalgaon",
    "lat": "21.0167",
    "lng": "75.5667",
    "country": "India",
    "iso2": "IN",
    "admin_name": "Maharashtra",
    "capital": "",
    "population": "460468",
    "population_proper": "460468",
    "search": "जळगाव"
  },
  {
    "city": "Kurnool",
    "lat": "15.8222",
    "lng": "78.0350",
    "country": "India",
    "iso2": "IN",
    "admin_name": "Andhra Pradesh",
    "capital": "",
    "population": "457633",
    "population_proper": "457633",
    "search": "కర్నూల్"
  },
  {
    "city": "Udaipur",
    "lat": "24.5833",
    "lng": "73.6833",
    "country": "India",
    "iso2": "IN",
    "admin_name": "Rajasthan",
    "capital": "",
    "population": "451100",
    "population_proper": "451100",
    "search": "उदयपुर"
  },
  {
    "city": "Bellary",
    "lat": "15.1500",
    "lng": "76.9150",
    "country": "India",
    "iso2": "IN",
    "admin_name": "Karnataka",
    "capital": "",
    "population": "445388",
    "population_proper": "336681",
    "search": "ಬೆಲ್ಲಾರಿ"
  },
  {
    "city": "Sangli",
    "lat": "16.8667",
    "lng": "74.5667",
    "country": "India",
    "iso2": "IN",
    "admin_name": "Maharashtra",
    "capital": "",
    "population": "436639",
    "population_proper": "436639",
    "search": "सांगली"
  },
  {
    "city": "Tuticorin",
    "lat": "8.7833",
    "lng": "78.1333",
    "country": "India",
    "iso2": "IN",
    "admin_name": "Tamil Nadu",
    "capital": "",
    "population": "436094",
    "population_proper": "436094",
    "search": "துதிகரின்"
  },
  {
    "city": "Calicut",
    "lat": "11.2500",
    "lng": "75.7667",
    "country": "India",
    "iso2": "IN",
    "admin_name": "Kerala",
    "capital": "minor",
    "population": "431560",
    "population_proper": "431560",
    "search": "കാലിക്കറ്റ്"
  },
  {
    "city": "Akola",
    "lat": "20.7333",
    "lng": "77.0000",
    "country": "India",
    "iso2": "IN",
    "admin_name": "Maharashtra",
    "capital": "",
    "population": "425817",
    "population_proper": "425817",
    "search": "अकोला"
  },
  {
    "city": "Bhagalpur",
    "lat": "25.2500",
    "lng": "87.0167",
    "country": "India",
    "iso2": "IN",
    "admin_name": "Bihar",
    "capital": "",
    "population": "410210",
    "population_proper": "410210",
    "search": "भागलपुर"
  },
  {
    "city": "Sikar",
    "lat": "27.6119",
    "lng": "75.1397",
    "country": "India",
    "iso2": "IN",
    "admin_name": "Rajasthan",
    "capital": "",
    "population": "400000",
    "population_proper": "237579",
    "search": "सीकर"
  },
  {
    "city": "Tumkur",
    "lat": "13.3300",
    "lng": "77.1000",
    "country": "India",
    "iso2": "IN",
    "admin_name": "Karnataka",
    "capital": "",
    "population": "399606",
    "population_proper": "307359",
    "search": "ಟುಂಕುರ್"
  },
  {
    "city": "Quilon",
    "lat": "8.8853",
    "lng": "76.5864",
    "country": "India",
    "iso2": "IN",
    "admin_name": "Kerala",
    "capital": "",
    "population": "397419",
    "population_proper": "397419",
    "search": "ക്വിലാണ്"
  },
  {
    "city": "Muzaffarnagar",
    "lat": "29.4708",
    "lng": "77.7033",
    "country": "India",
    "iso2": "IN",
    "admin_name": "Uttar Pradesh",
    "capital": "",
    "population": "392451",
    "population_proper": "392451",
    "search": "मुज़फ्फरनगर"
  },
  {
    "city": "Bhilwara",
    "lat": "25.3500",
    "lng": "74.6333",
    "country": "India",
    "iso2": "IN",
    "admin_name": "Rajasthan",
    "capital": "",
    "population": "389911",
    "population_proper": "326431",
    "search": "भीलवाड़ा"
  },
  {
    "city": "Nizamabad",
    "lat": "18.6704",
    "lng": "78.1000",
    "country": "India",
    "iso2": "IN",
    "admin_name": "Telangana",
    "capital": "",
    "population": "388505",
    "population_proper": "305438",
    "search": "నిజామాబాదు"
  },
  {
    "city": "Bhatpara",
    "lat": "22.8667",
    "lng": "88.4167",
    "country": "India",
    "iso2": "IN",
    "admin_name": "West Bengal",
    "capital": "",
    "population": "386019",
    "population_proper": "386019",
    "search": "ভাটপাড়া"
  },
  {
    "city": "Kakinada",
    "lat": "16.9333",
    "lng": "82.2167",
    "country": "India",
    "iso2": "IN",
    "admin_name": "Andhra Pradesh",
    "capital": "",
    "population": "384182",
    "population_proper": "384182",
    "search": "కాకినాడ"
  },
  {
    "city": "Parbhani",
    "lat": "19.2704",
    "lng": "76.7600",
    "country": "India",
    "iso2": "IN",
    "admin_name": "Maharashtra",
    "capital": "",
    "population": "378326",
    "population_proper": "289629",
    "search": "परभणी"
  },
  {
    "city": "Panihati",
    "lat": "22.6900",
    "lng": "88.3700",
    "country": "India",
    "iso2": "IN",
    "admin_name": "West Bengal",
    "capital": "",
    "population": "377347",
    "population_proper": "377347",
    "search": "পানিহাটি"
  },
  {
    "city": "Latur",
    "lat": "18.4004",
    "lng": "76.5700",
    "country": "India",
    "iso2": "IN",
    "admin_name": "Maharashtra",
    "capital": "",
    "population": "374394",
    "population_proper": "348967",
    "search": "लातूर"
  },
  {
    "city": "Rohtak",
    "lat": "28.9000",
    "lng": "76.5667",
    "country": "India",
    "iso2": "IN",
    "admin_name": "Haryana",
    "capital": "",
    "population": "374292",
    "population_proper": "374292",
    "search": "रोहतक"
  },
  {
    "city": "Rajapalaiyam",
    "lat": "9.4204",
    "lng": "77.5800",
    "country": "India",
    "iso2": "IN",
    "admin_name": "Tamil Nadu",
    "capital": "",
    "population": "369991",
    "population_proper": "307959",
    "search": "ராஜபாளையம்"
  },
  {
    "city": "Ahmadnagar",
    "lat": "19.0833",
    "lng": "74.7333",
    "country": "India",
    "iso2": "IN",
    "admin_name": "Maharashtra",
    "capital": "",
    "population": "350859",
    "population_proper": "350859",
    "search": "अहमदनगर"
  },
  {
    "city": "Cuddapah",
    "lat": "14.4667",
    "lng": "78.8167",
    "country": "India",
    "iso2": "IN",
    "admin_name": "Andhra Pradesh",
    "capital": "",
    "population": "344893",
    "population_proper": "344893",
    "search": "సుద్దపహ్"
  },
  {
    "city": "Rajahmundry",
    "lat": "16.9833",
    "lng": "81.7833",
    "country": "India",
    "iso2": "IN",
    "admin_name": "Andhra Pradesh",
    "capital": "",
    "population": "341831",
    "population_proper": "341831",
    "search": "రాజముండ్రి"
  },
  {
    "city": "Alwar",
    "lat": "27.5667",
    "lng": "76.6167",
    "country": "India",
    "iso2": "IN",
    "admin_name": "Rajasthan",
    "capital": "",
    "population": "341422",
    "population_proper": "341422",
    "search": "अलवर"
  },
  {
    "city": "Muzaffarpur",
    "lat": "26.1200",
    "lng": "85.3833",
    "country": "India",
    "iso2": "IN",
    "admin_name": "Bihar",
    "capital": "",
    "population": "333200",
    "population_proper": "333200",
    "search": "मुजफ्फरपुर"
  },
  {
    "city": "Bilaspur",
    "lat": "22.1500",
    "lng": "82.0167",
    "country": "India",
    "iso2": "IN",
    "admin_name": "Chhattisgarh",
    "capital": "",
    "population": "331030",
    "population_proper": "331030",
    "search": "बिलासपुर"
  },
  {
    "city": "Mathura",
    "lat": "27.4833",
    "lng": "77.6833",
    "country": "India",
    "iso2": "IN",
    "admin_name": "Uttar Pradesh",
    "capital": "",
    "population": "330511",
    "population_proper": "330511",
    "search": "मथुरा"
  },
  {
    "city": "Kamarhati",
    "lat": "22.6700",
    "lng": "88.3700",
    "country": "India",
    "iso2": "IN",
    "admin_name": "West Bengal",
    "capital": "",
    "population": "330211",
    "population_proper": "330211",
    "search": "কামারহাটি"
  },
  {
    "city": "Patiala",
    "lat": "30.3204",
    "lng": "76.3850",
    "country": "India",
    "iso2": "IN",
    "admin_name": "Punjab",
    "capital": "",
    "population": "329224",
    "population_proper": "329224",
    "search": "ਪਟਿਆਲਾ"
  },
  {
    "city": "Saugor",
    "lat": "23.8504",
    "lng": "78.7500",
    "country": "India",
    "iso2": "IN",
    "admin_name": "Madhya Pradesh",
    "capital": "",
    "population": "328240",
    "population_proper": "247333",
    "search": "सौगोर"
  },
  {
    "city": "Bijapur",
    "lat": "16.8244",
    "lng": "75.7154",
    "country": "India",
    "iso2": "IN",
    "admin_name": "Karnataka",
    "capital": "",
    "population": "327427",
    "population_proper": "327427",
    "search": "ಬಿಜಾಪುರ್"
  },
  {
    "city": "Brahmapur",
    "lat": "19.3200",
    "lng": "84.8000",
    "country": "India",
    "iso2": "IN",
    "admin_name": "Odisha",
    "capital": "",
    "population": "324726",
    "population_proper": "324726",
    "search": "ବ୍ରହ୍ମପୁର"
  },
  {
    "city": "Shahjanpur",
    "lat": "27.8804",
    "lng": "79.9050",
    "country": "India",
    "iso2": "IN",
    "admin_name": "Uttar Pradesh",
    "capital": "",
    "population": "320434",
    "population_proper": "320434",
    "search": "शहजानपुर"
  },
  {
    "city": "Trichur",
    "lat": "10.5200",
    "lng": "76.2100",
    "country": "India",
    "iso2": "IN",
    "admin_name": "Kerala",
    "capital": "",
    "population": "315596",
    "population_proper": "315596",
    "search": "തൃശൂർ"
  },
  {
    "city": "Barddhaman",
    "lat": "23.2500",
    "lng": "87.8500",
    "country": "India",
    "iso2": "IN",
    "admin_name": "West Bengal",
    "capital": "",
    "population": "314265",
    "population_proper": "314265",
    "search": "বার্দ্ধমান"
  },
  {
    "city": "Kulti",
    "lat": "23.7300",
    "lng": "86.8500",
    "country": "India",
    "iso2": "IN",
    "admin_name": "West Bengal",
    "capital": "",
    "population": "313809",
    "population_proper": "313809",
    "search": "কুলটি"
  },
  {
    "city": "Sambalpur",
    "lat": "21.4704",
    "lng": "83.9701",
    "country": "India",
    "iso2": "IN",
    "admin_name": "Odisha",
    "capital": "",
    "population": "310852",
    "population_proper": "162887",
    "search": "ସମ୍ବଲପୁର"
  },
  {
    "city": "Purnea",
    "lat": "25.7800",
    "lng": "87.4700",
    "country": "India",
    "iso2": "IN",
    "admin_name": "Bihar",
    "capital": "",
    "population": "310817",
    "population_proper": "310817",
    "search": "पूर्णा"
  },
  {
    "city": "Hisar",
    "lat": "29.1489",
    "lng": "75.7367",
    "country": "India",
    "iso2": "IN",
    "admin_name": "Haryana",
    "capital": "",
    "population": "307024",
    "population_proper": "307024",
    "search": "हिसार"
  },
  {
    "city": "Firozabad",
    "lat": "27.1500",
    "lng": "78.3949",
    "country": "India",
    "iso2": "IN",
    "admin_name": "Uttar Pradesh",
    "capital": "",
    "population": "306409",
    "population_proper": "306409",
    "search": "फ़िरोज़ाबाद"
  },
  {
    "city": "Bidar",
    "lat": "17.9229",
    "lng": "77.5175",
    "country": "India",
    "iso2": "IN",
    "admin_name": "Karnataka",
    "capital": "",
    "population": "300136",
    "population_proper": "204071",
    "search": "ಬೀದರ್"
  },
  {
    "city": "Rampur",
    "lat": "28.8154",
    "lng": "79.0250",
    "country": "India",
    "iso2": "IN",
    "admin_name": "Uttar Pradesh",
    "capital": "",
    "population": "296418",
    "population_proper": "296418",
    "search": "रामपुर"
  },
  {
    "city": "Shiliguri",
    "lat": "26.7200",
    "lng": "88.4200",
    "country": "India",
    "iso2": "IN",
    "admin_name": "West Bengal",
    "capital": "",
    "population": "294546",
    "population_proper": "294546",
    "search": "শিলিগুড়ি"
  },
  {
    "city": "Bali",
    "lat": "22.6500",
    "lng": "88.3400",
    "country": "India",
    "iso2": "IN",
    "admin_name": "West Bengal",
    "capital": "",
    "population": "293373",
    "population_proper": "293373",
    "search": "বালি"
  },
  {
    "city": "Panipat",
    "lat": "29.4004",
    "lng": "76.9700",
    "country": "India",
    "iso2": "IN",
    "admin_name": "Haryana",
    "capital": "",
    "population": "292808",
    "population_proper": "292808",
    "search": "पानीपत"
  },
  {
    "city": "Karimnagar",
    "lat": "18.4333",
    "lng": "79.1500",
    "country": "India",
    "iso2": "IN",
    "admin_name": "Telangana",
    "capital": "",
    "population": "289821",
    "population_proper": "289821",
    "search": "కరీంనగర్"
  },
  {
    "city": "Bhuj",
    "lat": "23.2504",
    "lng": "69.8100",
    "country": "India",
    "iso2": "IN",
    "admin_name": "Gujarat",
    "capital": "",
    "population": "289429",
    "population_proper": "289429",
    "search": "ભુજ"
  },
  {
    "city": "Ichalkaranji",
    "lat": "16.7000",
    "lng": "74.4700",
    "country": "India",
    "iso2": "IN",
    "admin_name": "Maharashtra",
    "capital": "",
    "population": "287570",
    "population_proper": "287570",
    "search": "इचलकरंजी"
  },
  {
    "city": "Tirupati",
    "lat": "13.6500",
    "lng": "79.4200",
    "country": "India",
    "iso2": "IN",
    "admin_name": "Andhra Pradesh",
    "capital": "",
    "population": "287482",
    "population_proper": "287482",
    "search": "తిరుపతి"
  },
  {
    "city": "Hospet",
    "lat": "15.2667",
    "lng": "76.4000",
    "country": "India",
    "iso2": "IN",
    "admin_name": "Karnataka",
    "capital": "",
    "population": "286007",
    "population_proper": "197846",
    "search": "ಹೊಸ್ಪೆಟ್"
  },
  {
    "city": "aizawl",
    "lat": "23.7104",
    "lng": "92.7200",
    "country": "India",
    "iso2": "IN",
    "admin_name": "Mizoram",
    "capital": "admin",
    "population": "283021",
    "population_proper": "265331",
    "search": "ऐज़ौल"
  },
  {
    "city": "Sannai",
    "lat": "24.1600",
    "lng": "80.8300",
    "country": "India",
    "iso2": "IN",
    "admin_name": "Madhya Pradesh",
    "capital": "",
    "population": "283004",
    "population_proper": "283004",
    "search": "सन्नी"
  },
  {
    "city": "Barasat",
    "lat": "22.2333",
    "lng": "88.4500",
    "country": "India",
    "iso2": "IN",
    "admin_name": "West Bengal",
    "capital": "",
    "population": "278435",
    "population_proper": "278435",
    "search": "বারাসাত"
  },
  {
    "city": "Ratlam",
    "lat": "23.3167",
    "lng": "75.0667",
    "country": "India",
    "iso2": "IN",
    "admin_name": "Madhya Pradesh",
    "capital": "",
    "population": "273892",
    "population_proper": "273892",
    "search": "रतलाम"
  },
  {
    "city": "Handwara",
    "lat": "34.4000",
    "lng": "74.2800",
    "country": "India",
    "iso2": "IN",
    "admin_name": "Jammu and Kashmir",
    "capital": "",
    "population": "269311",
    "population_proper": "269311",
    "search": "हंदवारा"
  },
  {
    "city": "Drug",
    "lat": "21.1900",
    "lng": "81.2800",
    "country": "India",
    "iso2": "IN",
    "admin_name": "Chhattisgarh",
    "capital": "",
    "population": "268806",
    "population_proper": "268806",
    "search": "ड्रग"
  },
  {
    "city": "Imphal",
    "lat": "24.8200",
    "lng": "93.9500",
    "country": "India",
    "iso2": "IN",
    "admin_name": "Manipur",
    "capital": "admin",
    "population": "268243",
    "population_proper": "268243",
    "search": "इम्फाल"
  },
  {
    "city": "Anantapur",
    "lat": "14.6833",
    "lng": "77.6000",
    "country": "India",
    "iso2": "IN",
    "admin_name": "Andhra Pradesh",
    "capital": "",
    "population": "267161",
    "population_proper": "267161",
    "search": "అనంతపూర్"
  },
  {
    "city": "Etawah",
    "lat": "26.7855",
    "lng": "79.0150",
    "country": "India",
    "iso2": "IN",
    "admin_name": "Uttar Pradesh",
    "capital": "",
    "population": "257448",
    "population_proper": "257448",
    "search": "ेतवः"
  },
  {
    "city": "Raichur",
    "lat": "16.2104",
    "lng": "77.3550",
    "country": "India",
    "iso2": "IN",
    "admin_name": "Karnataka",
    "capital": "",
    "population": "255240",
    "population_proper": "225962",
    "search": "ರೈಚೂರ್"
  },
  {
    "city": "Ongole",
    "lat": "15.5000",
    "lng": "80.0500",
    "country": "India",
    "iso2": "IN",
    "admin_name": "Andhra Pradesh",
    "capital": "",
    "population": "252739",
    "population_proper": "252739",
    "search": "ఒంగోలు"
  },
  {
    "city": "Bharatpur",
    "lat": "27.2172",
    "lng": "77.4900",
    "country": "India",
    "iso2": "IN",
    "admin_name": "Rajasthan",
    "capital": "",
    "population": "252342",
    "population_proper": "252342",
    "search": "भरतपुर"
  },
  {
    "city": "Begusarai",
    "lat": "25.4200",
    "lng": "86.1300",
    "country": "India",
    "iso2": "IN",
    "admin_name": "Bihar",
    "capital": "",
    "population": "252008",
    "population_proper": "252008",
    "search": "बेगुसराई"
  },
  {
    "city": "Sonipat",
    "lat": "28.9958",
    "lng": "77.0114",
    "country": "India",
    "iso2": "IN",
    "admin_name": "Haryana",
    "capital": "",
    "population": "250521",
    "population_proper": "250521",
    "search": "सोनीपत"
  },
  {
    "city": "Ramgundam",
    "lat": "18.8000",
    "lng": "79.4500",
    "country": "India",
    "iso2": "IN",
    "admin_name": "Telangana",
    "capital": "",
    "population": "242979",
    "population_proper": "242979",
    "search": "రామగుండం"
  },
  {
    "city": "Hapur",
    "lat": "28.7437",
    "lng": "77.7628",
    "country": "India",
    "iso2": "IN",
    "admin_name": "Uttar Pradesh",
    "capital": "",
    "population": "242920",
    "population_proper": "242920",
    "search": "हापुड़"
  },
  {
    "city": "Uluberiya",
    "lat": "22.4700",
    "lng": "88.1100",
    "country": "India",
    "iso2": "IN",
    "admin_name": "West Bengal",
    "capital": "",
    "population": "235345",
    "population_proper": "235345",
    "search": "উলুবেড়িয়া"
  },
  {
    "city": "Porbandar",
    "lat": "21.6425",
    "lng": "69.6047",
    "country": "India",
    "iso2": "IN",
    "admin_name": "Gujarat",
    "capital": "",
    "population": "234684",
    "population_proper": "138872",
    "search": "પોરબંદર"
  },
  {
    "city": "Pali",
    "lat": "25.7725",
    "lng": "73.3233",
    "country": "India",
    "iso2": "IN",
    "admin_name": "Rajasthan",
    "capital": "",
    "population": "229956",
    "population_proper": "229956",
    "search": "पाली"
  },
  {
    "city": "Vizianagaram",
    "lat": "18.1167",
    "lng": "83.4167",
    "country": "India",
    "iso2": "IN",
    "admin_name": "Andhra Pradesh",
    "capital": "",
    "population": "228720",
    "population_proper": "228720",
    "search": "విజినగరం"
  },
  {
    "city": "Puducherry",
    "lat": "11.9300",
    "lng": "79.8300",
    "country": "India",
    "iso2": "IN",
    "admin_name": "Puducherry",
    "capital": "admin",
    "population": "227411",
    "population_proper": "227411",
    "search": "புதுச்சேரி"
  },
  {
    "city": "Karnal",
    "lat": "29.6804",
    "lng": "76.9700",
    "country": "India",
    "iso2": "IN",
    "admin_name": "Haryana",
    "capital": "",
    "population": "225049",
    "population_proper": "225049",
    "search": "कर्नल"
  },
  {
    "city": "Nagercoil",
    "lat": "8.1700",
    "lng": "77.4300",
    "country": "India",
    "iso2": "IN",
    "admin_name": "Tamil Nadu",
    "capital": "",
    "population": "224329",
    "population_proper": "213858",
    "search": "நாகர்கோயில்"
  },
  {
    "city": "Tanjore",
    "lat": "10.8000",
    "lng": "79.1500",
    "country": "India",
    "iso2": "IN",
    "admin_name": "Tamil Nadu",
    "capital": "",
    "population": "222943",
    "population_proper": "222943",
    "search": "தஞ்சாவூ"
  },
  {
    "city": "Sambhal",
    "lat": "28.5800",
    "lng": "78.5500",
    "country": "India",
    "iso2": "IN",
    "admin_name": "Uttar Pradesh",
    "capital": "",
    "population": "220813",
    "population_proper": "220813",
    "search": "संभल"
  },
  {
    "city": "Naihati",
    "lat": "22.9000",
    "lng": "88.4200",
    "country": "India",
    "iso2": "IN",
    "admin_name": "West Bengal",
    "capital": "",
    "population": "217900",
    "population_proper": "217900",
    "search": "নৈহাটী"
  },
  {
    "city": "Secunderabad",
    "lat": "17.4500",
    "lng": "78.5000",
    "country": "India",
    "iso2": "IN",
    "admin_name": "Telangana",
    "capital": "",
    "population": "213698",
    "population_proper": "213698",
    "search": "సికింద్రాబాద్"
  },
  {
    "city": "Kharagpur",
    "lat": "22.3302",
    "lng": "87.3237",
    "country": "India",
    "iso2": "IN",
    "admin_name": "West Bengal",
    "capital": "",
    "population": "207604",
    "population_proper": "207604",
    "search": "খড়্গপুর"
  },
  {
    "city": "Dindigul",
    "lat": "10.3500",
    "lng": "77.9500",
    "country": "India",
    "iso2": "IN",
    "admin_name": "Tamil Nadu",
    "capital": "",
    "population": "207327",
    "population_proper": "207327",
    "search": "டிண்டிக்குள்"
  },
  {
    "city": "Shimla",
    "lat": "31.1033",
    "lng": "77.1722",
    "country": "India",
    "iso2": "IN",
    "admin_name": "Himachal Pradesh",
    "capital": "admin",
    "population": "206575",
    "population_proper": "206575",
    "search": "शिमला"
  },
  {
    "city": "Ingraj Bazar",
    "lat": "25.0000",
    "lng": "88.1500",
    "country": "India",
    "iso2": "IN",
    "admin_name": "West Bengal",
    "capital": "",
    "population": "205521",
    "population_proper": "205521",
    "search": "ইংরাজ বাজার"
  },
  {
    "city": "Ellore",
    "lat": "16.7000",
    "lng": "81.1000",
    "country": "India",
    "iso2": "IN",
    "admin_name": "Andhra Pradesh",
    "capital": "",
    "population": "203780",
    "population_proper": "203780",
    "search": "ఎల్లూరి"
  },
  {
    "city": "Puri",
    "lat": "19.8000",
    "lng": "85.8167",
    "country": "India",
    "iso2": "IN",
    "admin_name": "Odisha",
    "capital": "",
    "population": "201026",
    "population_proper": "201026",
    "search": "ପୁରୀ"
  },
  {
    "city": "Haldia",
    "lat": "22.0257",
    "lng": "88.0583",
    "country": "India",
    "iso2": "IN",
    "admin_name": "West Bengal",
    "capital": "",
    "population": "200762",
    "population_proper": "200762",
    "search": "হলদিয়া"
  },
  {
    "city": "Nandyal",
    "lat": "15.4800",
    "lng": "78.4800",
    "country": "India",
    "iso2": "IN",
    "admin_name": "Andhra Pradesh",
    "capital": "",
    "population": "200516",
    "population_proper": "200516",
    "search": "నంద్యాల"
  },
  {
    "city": "Bulandshahr",
    "lat": "28.4104",
    "lng": "77.8484",
    "country": "India",
    "iso2": "IN",
    "admin_name": "Uttar Pradesh",
    "capital": "",
    "population": "198612",
    "population_proper": "198612",
    "search": "बुलंदशहर"
  },
  {
    "city": "Chakradharpur",
    "lat": "22.7000",
    "lng": "85.6300",
    "country": "India",
    "iso2": "IN",
    "admin_name": "Jharkhand",
    "capital": "",
    "population": "197953",
    "population_proper": "197953",
    "search": "चक्रधरपुर"
  },
  {
    "city": "Bhiwani",
    "lat": "28.7833",
    "lng": "76.1333",
    "country": "India",
    "iso2": "IN",
    "admin_name": "Haryana",
    "capital": "",
    "population": "197662",
    "population_proper": "197662",
    "search": "भिवानी"
  },
  {
    "city": "Gurgaon",
    "lat": "28.4500",
    "lng": "77.0200",
    "country": "India",
    "iso2": "IN",
    "admin_name": "Haryana",
    "capital": "",
    "population": "197340",
    "population_proper": "197340",
    "search": "गुडगाँव"
  },
  {
    "city": "Burhanpur",
    "lat": "21.3004",
    "lng": "76.1300",
    "country": "India",
    "iso2": "IN",
    "admin_name": "Madhya Pradesh",
    "capital": "",
    "population": "197233",
    "population_proper": "197233",
    "search": "बुरहानपुर"
  },
  {
    "city": "Khammam",
    "lat": "17.2500",
    "lng": "80.1500",
    "country": "India",
    "iso2": "IN",
    "admin_name": "Telangana",
    "capital": "",
    "population": "196283",
    "population_proper": "196283",
    "search": "ఖమ్మం"
  },
  {
    "city": "Madhyamgram",
    "lat": "22.7000",
    "lng": "88.4500",
    "country": "India",
    "iso2": "IN",
    "admin_name": "West Bengal",
    "capital": "",
    "population": "196127",
    "population_proper": "196127",
    "search": "মধ্যমগ্রাম"
  },
  {
    "city": "Ghandinagar",
    "lat": "23.2200",
    "lng": "72.6800",
    "country": "India",
    "iso2": "IN",
    "admin_name": "Gujarat",
    "capital": "admin",
    "population": "195891",
    "population_proper": "195891",
    "search": "ગાંડીનગર"
  },
  {
    "city": "Baharampur",
    "lat": "24.1000",
    "lng": "88.2500",
    "country": "India",
    "iso2": "IN",
    "admin_name": "West Bengal",
    "capital": "",
    "population": "195223",
    "population_proper": "195223",
    "search": "বাহারামপুর"
  },
  {
    "city": "Mahbubnagar",
    "lat": "16.7333",
    "lng": "77.9833",
    "country": "India",
    "iso2": "IN",
    "admin_name": "Telangana",
    "capital": "",
    "population": "190400",
    "population_proper": "190400",
    "search": "మహబూబ్నగర్"
  },
  {
    "city": "Mahesana",
    "lat": "23.6000",
    "lng": "72.4000",
    "country": "India",
    "iso2": "IN",
    "admin_name": "Gujarat",
    "capital": "",
    "population": "184991",
    "population_proper": "184991",
    "search": "મહેસાણા"
  },
  {
    "city": "adoni",
    "lat": "15.6300",
    "lng": "77.2800",
    "country": "India",
    "iso2": "IN",
    "admin_name": "Andhra Pradesh",
    "capital": "",
    "population": "184625",
    "population_proper": "184625",
    "search": "ఆదోని"
  },
  {
    "city": "Raiganj",
    "lat": "25.6167",
    "lng": "88.1167",
    "country": "India",
    "iso2": "IN",
    "admin_name": "West Bengal",
    "capital": "",
    "population": "183612",
    "population_proper": "183612",
    "search": "রায়গঞ্জ"
  },
  {
    "city": "Bhusaval",
    "lat": "21.0200",
    "lng": "75.8300",
    "country": "India",
    "iso2": "IN",
    "admin_name": "Maharashtra",
    "capital": "",
    "population": "183001",
    "population_proper": "172366",
    "search": "भुसावळ"
  },
  {
    "city": "Bahraigh",
    "lat": "27.6204",
    "lng": "81.6699",
    "country": "India",
    "iso2": "IN",
    "admin_name": "Uttar Pradesh",
    "capital": "",
    "population": "182218",
    "population_proper": "182218",
    "search": "बहराइ"
  },
  {
    "city": "Shrirampur",
    "lat": "22.7500",
    "lng": "88.3400",
    "country": "India",
    "iso2": "IN",
    "admin_name": "West Bengal",
    "capital": "",
    "population": "181842",
    "population_proper": "181842",
    "search": "শ্রীরামপুর"
  },
  {
    "city": "Tonk",
    "lat": "26.1505",
    "lng": "75.7900",
    "country": "India",
    "iso2": "IN",
    "admin_name": "Rajasthan",
    "capital": "",
    "population": "181734",
    "population_proper": "151331",
    "search": "टोंक"
  },
  {
    "city": "Sirsa",
    "lat": "29.4904",
    "lng": "75.0300",
    "country": "India",
    "iso2": "IN",
    "admin_name": "Haryana",
    "capital": "",
    "population": "181639",
    "population_proper": "160129",
    "search": "सिरसा"
  },
  {
    "city": "Jaunpur",
    "lat": "25.7333",
    "lng": "82.6833",
    "country": "India",
    "iso2": "IN",
    "admin_name": "Uttar Pradesh",
    "capital": "",
    "population": "180362",
    "population_proper": "180362",
    "search": "जौनपुर"
  },
  {
    "city": "Madanapalle",
    "lat": "13.5500",
    "lng": "78.5000",
    "country": "India",
    "iso2": "IN",
    "admin_name": "Andhra Pradesh",
    "capital": "",
    "population": "180180",
    "population_proper": "180180",
    "search": "మదనపల్లె"
  },
  {
    "city": "Hugli",
    "lat": "22.9000",
    "lng": "88.3900",
    "country": "India",
    "iso2": "IN",
    "admin_name": "West Bengal",
    "capital": "",
    "population": "179931",
    "population_proper": "179931",
    "search": "হুগলি"
  },
  {
    "city": "Vellore",
    "lat": "12.9204",
    "lng": "79.1500",
    "country": "India",
    "iso2": "IN",
    "admin_name": "Tamil Nadu",
    "capital": "",
    "population": "177081",
    "population_proper": "177081",
    "search": "வெள்ளூர்"
  },
  {
    "city": "Alleppey",
    "lat": "9.5004",
    "lng": "76.3700",
    "country": "India",
    "iso2": "IN",
    "admin_name": "Kerala",
    "capital": "",
    "population": "176783",
    "population_proper": "176783",
    "search": "അല്ലെപ്പേയ്"
  },
  {
    "city": "Cuddalore",
    "lat": "11.7500",
    "lng": "79.7500",
    "country": "India",
    "iso2": "IN",
    "admin_name": "Tamil Nadu",
    "capital": "",
    "population": "173676",
    "population_proper": "173676",
    "search": "கூடலூ"
  },
  {
    "city": "Deo",
    "lat": "24.6561",
    "lng": "84.4356",
    "country": "India",
    "iso2": "IN",
    "admin_name": "Bihar",
    "capital": "",
    "population": "173216",
    "population_proper": "173216",
    "search": "डॉ"
  },
  {
    "city": "Chirala",
    "lat": "15.8200",
    "lng": "80.3500",
    "country": "India",
    "iso2": "IN",
    "admin_name": "Andhra Pradesh",
    "capital": "",
    "population": "172826",
    "population_proper": "172826",
    "search": "చీరాల"
  },
  {
    "city": "Machilipatnam",
    "lat": "16.1667",
    "lng": "81.1333",
    "country": "India",
    "iso2": "IN",
    "admin_name": "Andhra Pradesh",
    "capital": "",
    "population": "169892",
    "population_proper": "169892",
    "search": "మచిలీపట్టణం"
  },
  {
    "city": "Medinipur",
    "lat": "22.4333",
    "lng": "87.3333",
    "country": "India",
    "iso2": "IN",
    "admin_name": "West Bengal",
    "capital": "",
    "population": "169264",
    "population_proper": "169264",
    "search": "মেদিনীপুর"
  },
  {
    "city": "Baramula",
    "lat": "34.2000",
    "lng": "74.3400",
    "country": "India",
    "iso2": "IN",
    "admin_name": "Jammu and Kashmir",
    "capital": "",
    "population": "167986",
    "population_proper": "167986",
    "search": "बारामुला"
  },
  {
    "city": "Chandannagar",
    "lat": "22.8667",
    "lng": "88.3833",
    "country": "India",
    "iso2": "IN",
    "admin_name": "West Bengal",
    "capital": "",
    "population": "166867",
    "population_proper": "166867",
    "search": "চন্দননগর"
  },
  {
    "city": "Fatehpur",
    "lat": "25.8804",
    "lng": "80.8000",
    "country": "India",
    "iso2": "IN",
    "admin_name": "Uttar Pradesh",
    "capital": "",
    "population": "166480",
    "population_proper": "166480",
    "search": "फतेहपुर"
  },
  {
    "city": "Udipi",
    "lat": "13.3322",
    "lng": "74.7461",
    "country": "India",
    "iso2": "IN",
    "admin_name": "Karnataka",
    "capital": "",
    "population": "165401",
    "population_proper": "165401",
    "search": "ಉಡಿಪಿ"
  },
  {
    "city": "Tenali",
    "lat": "16.2430",
    "lng": "80.6400",
    "country": "India",
    "iso2": "IN",
    "admin_name": "Andhra Pradesh",
    "capital": "",
    "population": "164937",
    "population_proper": "164937",
    "search": "తెనాలి"
  },
  {
    "city": "Sitalpur",
    "lat": "27.6300",
    "lng": "80.7500",
    "country": "India",
    "iso2": "IN",
    "admin_name": "Uttar Pradesh",
    "capital": "",
    "population": "164435",
    "population_proper": "164435",
    "search": "सीतलपुर"
  },
  {
    "city": "Conjeeveram",
    "lat": "12.8308",
    "lng": "79.7078",
    "country": "India",
    "iso2": "IN",
    "admin_name": "Tamil Nadu",
    "capital": "",
    "population": "164384",
    "population_proper": "164384",
    "search": "காஞ்சீவிராம்"
  },
  {
    "city": "Proddatur",
    "lat": "14.7300",
    "lng": "78.5500",
    "country": "India",
    "iso2": "IN",
    "admin_name": "Andhra Pradesh",
    "capital": "",
    "population": "163970",
    "population_proper": "163970",
    "search": "ప్రొద్దటూరు"
  },
  {
    "city": "Navsari",
    "lat": "20.8504",
    "lng": "72.9200",
    "country": "India",
    "iso2": "IN",
    "admin_name": "Gujarat",
    "capital": "",
    "population": "163000",
    "population_proper": "163000",
    "search": "નવસારી"
  },
  {
    "city": "Godhra",
    "lat": "22.7755",
    "lng": "73.6149",
    "country": "India",
    "iso2": "IN",
    "admin_name": "Gujarat",
    "capital": "",
    "population": "161925",
    "population_proper": "161925",
    "search": "ગોધરા"
  },
  {
    "city": "Budaun",
    "lat": "28.0300",
    "lng": "79.0900",
    "country": "India",
    "iso2": "IN",
    "admin_name": "Uttar Pradesh",
    "capital": "",
    "population": "161555",
    "population_proper": "161555",
    "search": "बुड़ाऊं"
  },
  {
    "city": "Chittoor",
    "lat": "13.2000",
    "lng": "79.1167",
    "country": "India",
    "iso2": "IN",
    "admin_name": "Andhra Pradesh",
    "capital": "",
    "population": "160722",
    "population_proper": "160722",
    "search": "చిత్తూర్"
  },
  {
    "city": "Haripur",
    "lat": "31.5200",
    "lng": "75.9800",
    "country": "India",
    "iso2": "IN",
    "admin_name": "Punjab",
    "capital": "",
    "population": "158142",
    "population_proper": "158142",
    "search": "ਹਰੀਪੁਰ"
  },
  {
    "city": "Saharsa",
    "lat": "25.8800",
    "lng": "86.6000",
    "country": "India",
    "iso2": "IN",
    "admin_name": "Bihar",
    "capital": "",
    "population": "156540",
    "population_proper": "156540",
    "search": "सहरसा"
  },
  {
    "city": "Vidisha",
    "lat": "23.5239",
    "lng": "77.8061",
    "country": "India",
    "iso2": "IN",
    "admin_name": "Madhya Pradesh",
    "capital": "",
    "population": "155959",
    "population_proper": "155959",
    "search": "विदिशा"
  },
  {
    "city": "Pathankot",
    "lat": "32.2689",
    "lng": "75.6497",
    "country": "India",
    "iso2": "IN",
    "admin_name": "Punjab",
    "capital": "",
    "population": "155909",
    "population_proper": "155909",
    "search": "ਪਠਾਨਕੋਟ"
  },
  {
    "city": "Nalgonda",
    "lat": "17.0500",
    "lng": "79.2700",
    "country": "India",
    "iso2": "IN",
    "admin_name": "Telangana",
    "capital": "",
    "population": "154326",
    "population_proper": "154326",
    "search": "నల్గొండ"
  },
  {
    "city": "Dibrugarh",
    "lat": "27.4833",
    "lng": "95.0000",
    "country": "India",
    "iso2": "IN",
    "admin_name": "Assam",
    "capital": "",
    "population": "154019",
    "population_proper": "154019",
    "search": "ডিব্ৰুগড়"
  },
  {
    "city": "Balurghat",
    "lat": "25.2167",
    "lng": "88.7667",
    "country": "India",
    "iso2": "IN",
    "admin_name": "West Bengal",
    "capital": "",
    "population": "153279",
    "population_proper": "153279",
    "search": "বালুরঘাট"
  },
  {
    "city": "Krishnanagar",
    "lat": "23.4000",
    "lng": "88.5000",
    "country": "India",
    "iso2": "IN",
    "admin_name": "West Bengal",
    "capital": "",
    "population": "153062",
    "population_proper": "153062",
    "search": "কৃষ্ণনগর"
  },
  {
    "city": "Fyzabad",
    "lat": "26.7504",
    "lng": "82.1700",
    "country": "India",
    "iso2": "IN",
    "admin_name": "Uttar Pradesh",
    "capital": "",
    "population": "153047",
    "population_proper": "153047",
    "search": "फैज़ाबाद"
  },
  {
    "city": "Silchar",
    "lat": "24.7904",
    "lng": "92.7900",
    "country": "India",
    "iso2": "IN",
    "admin_name": "Assam",
    "capital": "",
    "population": "152393",
    "population_proper": "152393",
    "search": "শিলচৰ"
  },
  {
    "city": "Shantipur",
    "lat": "23.2500",
    "lng": "88.4300",
    "country": "India",
    "iso2": "IN",
    "admin_name": "West Bengal",
    "capital": "",
    "population": "151777",
    "population_proper": "151777",
    "search": "শান্তিপুর"
  },
  {
    "city": "Hindupur",
    "lat": "13.8300",
    "lng": "77.4900",
    "country": "India",
    "iso2": "IN",
    "admin_name": "Andhra Pradesh",
    "capital": "",
    "population": "151677",
    "population_proper": "151677",
    "search": "హిందూపూర్"
  },
  {
    "city": "Erode",
    "lat": "11.3408",
    "lng": "77.7172",
    "country": "India",
    "iso2": "IN",
    "admin_name": "Tamil Nadu",
    "capital": "",
    "population": "151184",
    "population_proper": "151184",
    "search": "எரோடே"
  },
  {
    "city": "Jamuria",
    "lat": "23.7000",
    "lng": "87.0800",
    "country": "India",
    "iso2": "IN",
    "admin_name": "West Bengal",
    "capital": "",
    "population": "149220",
    "population_proper": "149220",
    "search": "জামুরিয়া"
  },
  {
    "city": "Habra",
    "lat": "22.8300",
    "lng": "88.6300",
    "country": "India",
    "iso2": "IN",
    "admin_name": "West Bengal",
    "capital": "",
    "population": "147221",
    "population_proper": "147221",
    "search": "হাবড়া"
  },
  {
    "city": "Ambala",
    "lat": "30.3786",
    "lng": "76.7725",
    "country": "India",
    "iso2": "IN",
    "admin_name": "Haryana",
    "capital": "",
    "population": "146787",
    "population_proper": "146787",
    "search": "अम्बाला"
  },
  {
    "city": "Mauli",
    "lat": "30.7194",
    "lng": "76.7181",
    "country": "India",
    "iso2": "IN",
    "admin_name": "Punjab",
    "capital": "",
    "population": "146213",
    "population_proper": "146213",
    "search": "ਮੌਲੀ"
  },
  {
    "city": "Kolar",
    "lat": "13.1333",
    "lng": "78.1333",
    "country": "India",
    "iso2": "IN",
    "admin_name": "Karnataka",
    "capital": "",
    "population": "144625",
    "population_proper": "126441",
    "search": "ಕೋಲಾರ್"
  },
  {
    "city": "Shillong",
    "lat": "25.5744",
    "lng": "91.8789",
    "country": "India",
    "iso2": "IN",
    "admin_name": "Meghalaya",
    "capital": "admin",
    "population": "143229",
    "population_proper": "143229",
    "search": "শ্বিলঙ"
  },
  {
    "city": "Bhimavaram",
    "lat": "16.5333",
    "lng": "81.5333",
    "country": "India",
    "iso2": "IN",
    "admin_name": "Andhra Pradesh",
    "capital": "",
    "population": "142184",
    "population_proper": "142184",
    "search": "భీమవరం"
  },
  {
    "city": "New Delhi",
    "lat": "28.7000",
    "lng": "77.2000",
    "country": "India",
    "iso2": "IN",
    "admin_name": "Delhi",
    "capital": "primary",
    "population": "142004",
    "population_proper": "142004",
    "search": "नई दिल्ली"
  },
  {
    "city": "Mandsaur",
    "lat": "24.0300",
    "lng": "75.0800",
    "country": "India",
    "iso2": "IN",
    "admin_name": "Madhya Pradesh",
    "capital": "",
    "population": "141667",
    "population_proper": "141667",
    "search": "मंदसौर"
  },
  {
    "city": "Kumbakonam",
    "lat": "10.9805",
    "lng": "79.4000",
    "country": "India",
    "iso2": "IN",
    "admin_name": "Tamil Nadu",
    "capital": "",
    "population": "139264",
    "population_proper": "139264",
    "search": "கும்பகோணம்"
  },
  {
    "city": "Tiruvannamalai",
    "lat": "12.2604",
    "lng": "79.1000",
    "country": "India",
    "iso2": "IN",
    "admin_name": "Tamil Nadu",
    "capital": "",
    "population": "138243",
    "population_proper": "138243",
    "search": "திருவண்ணாமலை"
  },
  {
    "city": "Chicacole",
    "lat": "18.3000",
    "lng": "83.9000",
    "country": "India",
    "iso2": "IN",
    "admin_name": "Andhra Pradesh",
    "capital": "",
    "population": "137944",
    "population_proper": "137944",
    "search": "చీకేకలే"
  },
  {
    "city": "Bankura",
    "lat": "23.2500",
    "lng": "87.0667",
    "country": "India",
    "iso2": "IN",
    "admin_name": "West Bengal",
    "capital": "",
    "population": "137386",
    "population_proper": "137386",
    "search": "বাঁকুড়া"
  },
  {
    "city": "Mandya",
    "lat": "12.5242",
    "lng": "76.8958",
    "country": "India",
    "iso2": "IN",
    "admin_name": "Karnataka",
    "capital": "",
    "population": "137358",
    "population_proper": "137358",
    "search": "ಮಂಡ್ಯ"
  },
  {
    "city": "Hassan",
    "lat": "13.0050",
    "lng": "76.1028",
    "country": "India",
    "iso2": "IN",
    "admin_name": "Karnataka",
    "capital": "",
    "population": "133436",
    "population_proper": "133436",
    "search": "ಹಸ್ಸನ್"
  },
  {
    "city": "Yavatmal",
    "lat": "20.4000",
    "lng": "78.1333",
    "country": "India",
    "iso2": "IN",
    "admin_name": "Maharashtra",
    "capital": "",
    "population": "132000",
    "population_proper": "132000",
    "search": "यवतमाळ"
  },
  {
    "city": "Pilibhit",
    "lat": "28.6400",
    "lng": "79.8100",
    "country": "India",
    "iso2": "IN",
    "admin_name": "Uttar Pradesh",
    "capital": "",
    "population": "131008",
    "population_proper": "131008",
    "search": "पीलीभीत"
  },
  {
    "city": "Palghat",
    "lat": "10.7792",
    "lng": "76.6547",
    "country": "India",
    "iso2": "IN",
    "admin_name": "Kerala",
    "capital": "",
    "population": "130955",
    "population_proper": "130955",
    "search": "പൽഘട്"
  },
  {
    "city": "Abohar",
    "lat": "30.1204",
    "lng": "74.2900",
    "country": "India",
    "iso2": "IN",
    "admin_name": "Punjab",
    "capital": "",
    "population": "130603",
    "population_proper": "130603",
    "search": "ਅਬੋਹਰ"
  },
  {
    "city": "Palakollu",
    "lat": "16.5333",
    "lng": "81.7333",
    "country": "India",
    "iso2": "IN",
    "admin_name": "Andhra Pradesh",
    "capital": "",
    "population": "129717",
    "population_proper": "129717",
    "search": "పాలకొల్లు"
  },
  {
    "city": "Kanchrapara",
    "lat": "22.9700",
    "lng": "88.4300",
    "country": "India",
    "iso2": "IN",
    "admin_name": "West Bengal",
    "capital": "",
    "population": "129576",
    "population_proper": "129576",
    "search": "কাঁচরাপাড়া"
  },
  {
    "city": "Port Blair",
    "lat": "11.6667",
    "lng": "92.7500",
    "country": "India",
    "iso2": "IN",
    "admin_name": "Andaman and Nicobar Islands",
    "capital": "admin",
    "population": "127562",
    "population_proper": "112050",
    "search": "पोर्ट ब्लेयर"
  },
  {
    "city": "Alipur Duar",
    "lat": "26.4837",
    "lng": "89.5667",
    "country": "India",
    "iso2": "IN",
    "admin_name": "West Bengal",
    "capital": "",
    "population": "127342",
    "population_proper": "127342",
    "search": "আলিপুর দুয়ার"
  },
  {
    "city": "Hathras",
    "lat": "27.6000",
    "lng": "78.0500",
    "country": "India",
    "iso2": "IN",
    "admin_name": "Uttar Pradesh",
    "capital": "",
    "population": "126882",
    "population_proper": "126882",
    "search": "हाथरस"
  },
  {
    "city": "Guntakal",
    "lat": "15.1700",
    "lng": "77.3800",
    "country": "India",
    "iso2": "IN",
    "admin_name": "Andhra Pradesh",
    "capital": "",
    "population": "126270",
    "population_proper": "126270",
    "search": "గుంతకల్"
  },
  {
    "city": "Navadwip",
    "lat": "23.4088",
    "lng": "88.3657",
    "country": "India",
    "iso2": "IN",
    "admin_name": "West Bengal",
    "capital": "",
    "population": "125543",
    "population_proper": "125543",
    "search": "নবদ্বীপ"
  },
  {
    "city": "Basirhat",
    "lat": "22.6572",
    "lng": "88.8942",
    "country": "India",
    "iso2": "IN",
    "admin_name": "West Bengal",
    "capital": "",
    "population": "125254",
    "population_proper": "125254",
    "search": "বসিরহাট"
  },
  {
    "city": "Halisahar",
    "lat": "22.9500",
    "lng": "88.4200",
    "country": "India",
    "iso2": "IN",
    "admin_name": "West Bengal",
    "capital": "",
    "population": "124939",
    "population_proper": "124939",
    "search": "হালিশহর"
  },
  {
    "city": "Rishra",
    "lat": "22.7100",
    "lng": "88.3500",
    "country": "India",
    "iso2": "IN",
    "admin_name": "West Bengal",
    "capital": "",
    "population": "124577",
    "population_proper": "124577",
    "search": "ৰিষরঃ"
  },
  {
    "city": "Dharmavaram",
    "lat": "14.4142",
    "lng": "77.7150",
    "country": "India",
    "iso2": "IN",
    "admin_name": "Andhra Pradesh",
    "capital": "",
    "population": "121874",
    "population_proper": "121874",
    "search": "ధర్మవరం"
  },
  {
    "city": "Baidyabati",
    "lat": "22.7900",
    "lng": "88.3200",
    "country": "India",
    "iso2": "IN",
    "admin_name": "West Bengal",
    "capital": "",
    "population": "121110",
    "population_proper": "121110",
    "search": "বৈদ্যবাটী"
  },
  {
    "city": "Darjeeling",
    "lat": "27.0417",
    "lng": "88.2631",
    "country": "India",
    "iso2": "IN",
    "admin_name": "West Bengal",
    "capital": "",
    "population": "118805",
    "population_proper": "118805",
    "search": "দার্জিলিং"
  },
  {
    "city": "Sopur",
    "lat": "34.3000",
    "lng": "74.4700",
    "country": "India",
    "iso2": "IN",
    "admin_name": "Jammu and Kashmir",
    "capital": "",
    "population": "118608",
    "population_proper": "118608",
    "search": "सोपुर"
  },
  {
    "city": "Gudivada",
    "lat": "16.4300",
    "lng": "80.9900",
    "country": "India",
    "iso2": "IN",
    "admin_name": "Andhra Pradesh",
    "capital": "",
    "population": "118167",
    "population_proper": "118167",
    "search": "గుడివాడ"
  },
  {
    "city": "Adilabad",
    "lat": "19.6667",
    "lng": "78.5333",
    "country": "India",
    "iso2": "IN",
    "admin_name": "Telangana",
    "capital": "",
    "population": "117167",
    "population_proper": "117167",
    "search": "ఆదిలాబాద్"
  },
  {
    "city": "Titagarh",
    "lat": "22.7400",
    "lng": "88.3700",
    "country": "India",
    "iso2": "IN",
    "admin_name": "West Bengal",
    "capital": "",
    "population": "116541",
    "population_proper": "116541",
    "search": "টিটাগড়"
  },
  {
    "city": "Chittaurgarh",
    "lat": "24.8894",
    "lng": "74.6239",
    "country": "India",
    "iso2": "IN",
    "admin_name": "Rajasthan",
    "capital": "",
    "population": "116406",
    "population_proper": "116406",
    "search": "चित्तौरगढ़"
  },
  {
    "city": "Narasaraopet",
    "lat": "16.2360",
    "lng": "80.0540",
    "country": "India",
    "iso2": "IN",
    "admin_name": "Andhra Pradesh",
    "capital": "",
    "population": "116250",
    "population_proper": "116250",
    "search": "నరసరావుపేట"
  },
  {
    "city": "Dam Dam",
    "lat": "22.6200",
    "lng": "88.4200",
    "country": "India",
    "iso2": "IN",
    "admin_name": "West Bengal",
    "capital": "",
    "population": "114786",
    "population_proper": "114786",
    "search": "দামি দামি"
  },
  {
    "city": "Valparai",
    "lat": "10.3204",
    "lng": "76.9700",
    "country": "India",
    "iso2": "IN",
    "admin_name": "Tamil Nadu",
    "capital": "",
    "population": "114308",
    "population_proper": "90353",
    "search": "வால்பாறை"
  },
  {
    "city": "Osmanabad",
    "lat": "18.1667",
    "lng": "76.0500",
    "country": "India",
    "iso2": "IN",
    "admin_name": "Maharashtra",
    "capital": "",
    "population": "112085",
    "population_proper": "112085",
    "search": "उस्मानाबाद"
  },
  {
    "city": "Champdani",
    "lat": "22.8000",
    "lng": "88.3700",
    "country": "India",
    "iso2": "IN",
    "admin_name": "West Bengal",
    "capital": "",
    "population": "111251",
    "population_proper": "111251",
    "search": "চাম্পিড্যানি"
  },
  {
    "city": "Bangaon",
    "lat": "23.0700",
    "lng": "88.8200",
    "country": "India",
    "iso2": "IN",
    "admin_name": "West Bengal",
    "capital": "",
    "population": "108864",
    "population_proper": "108864",
    "search": "বনগাঁ"
  },
  {
    "city": "Khardah",
    "lat": "22.7200",
    "lng": "88.3800",
    "country": "India",
    "iso2": "IN",
    "admin_name": "West Bengal",
    "capital": "",
    "population": "108496",
    "population_proper": "108496",
    "search": "খড়দহ"
  },
  {
    "city": "Tadpatri",
    "lat": "14.9200",
    "lng": "78.0200",
    "country": "India",
    "iso2": "IN",
    "admin_name": "Andhra Pradesh",
    "capital": "",
    "population": "108171",
    "population_proper": "108171",
    "search": "తాడిపత్రి"
  },
  {
    "city": "Jalpaiguri",
    "lat": "26.5167",
    "lng": "88.7333",
    "country": "India",
    "iso2": "IN",
    "admin_name": "West Bengal",
    "capital": "",
    "population": "107341",
    "population_proper": "107341",
    "search": "জলপাইগুড়ি"
  },
  {
    "city": "Suriapet",
    "lat": "17.1500",
    "lng": "79.6167",
    "country": "India",
    "iso2": "IN",
    "admin_name": "Telangana",
    "capital": "",
    "population": "106805",
    "population_proper": "106805",
    "search": "సూరియాప్ట్"
  },
  {
    "city": "Tadepallegudem",
    "lat": "16.8333",
    "lng": "81.5000",
    "country": "India",
    "iso2": "IN",
    "admin_name": "Andhra Pradesh",
    "capital": "",
    "population": "104032",
    "population_proper": "104032",
    "search": "తాడేపల్లెగూడెం"
  },
  {
    "city": "Bansbaria",
    "lat": "22.9700",
    "lng": "88.4000",
    "country": "India",
    "iso2": "IN",
    "admin_name": "West Bengal",
    "capital": "",
    "population": "103920",
    "population_proper": "103920",
    "search": "বাঁশবাড়িয়া"
  },
  {
    "city": "Negapatam",
    "lat": "10.7667",
    "lng": "79.8333",
    "country": "India",
    "iso2": "IN",
    "admin_name": "Tamil Nadu",
    "capital": "",
    "population": "102905",
    "population_proper": "102905",
    "search": "நீக்கப்படம்"
  },
  {
    "city": "Bhadreswar",
    "lat": "22.8200",
    "lng": "88.3500",
    "country": "India",
    "iso2": "IN",
    "admin_name": "West Bengal",
    "capital": "",
    "population": "101477",
    "population_proper": "101477",
    "search": "ভদ্রেশ্বর"
  },
  {
    "city": "Chilakalurupet",
    "lat": "16.0892",
    "lng": "80.1672",
    "country": "India",
    "iso2": "IN",
    "admin_name": "Andhra Pradesh",
    "capital": "",
    "population": "101398",
    "population_proper": "101398",
    "search": "చిలకలూరిపేట"
  },
  {
    "city": "Kalyani",
    "lat": "22.9750",
    "lng": "88.4344",
    "country": "India",
    "iso2": "IN",
    "admin_name": "West Bengal",
    "capital": "",
    "population": "100575",
    "population_proper": "100575",
    "search": "কল্যাণী"
  },
  {
    "city": "Gangtok",
    "lat": "27.3300",
    "lng": "88.6200",
    "country": "India",
    "iso2": "IN",
    "admin_name": "Sikkim",
    "capital": "admin",
    "population": "100286",
    "population_proper": "100286",
    "search": "গঁগটোক"
  },
  {
    "city": "Kohima",
    "lat": "25.6667",
    "lng": "94.1194",
    "country": "India",
    "iso2": "IN",
    "admin_name": "Nagaland",
    "capital": "admin",
    "population": "99039",
    "population_proper": "99039",
    "search": "কোহিমা"
  },
  {
    "city": "Khambhat",
    "lat": "22.3131",
    "lng": "72.6194",
    "country": "India",
    "iso2": "IN",
    "admin_name": "Gujarat",
    "capital": "",
    "population": "98700",
    "population_proper": "98700",
    "search": "ખંભાત"
  },
  {
    "city": "Aurangabad",
    "lat": "24.7704",
    "lng": "84.3800",
    "country": "India",
    "iso2": "IN",
    "admin_name": "Bihar",
    "capital": "",
    "population": "95929",
    "population_proper": "95929",
    "search": "औरंगाबाद"
  },
  {
    "city": "Emmiganur",
    "lat": "15.7333",
    "lng": "77.4833",
    "country": "India",
    "iso2": "IN",
    "admin_name": "Andhra Pradesh",
    "capital": "",
    "population": "95149",
    "population_proper": "95149",
    "search": "ఎమ్మిగనూరు"
  },
  {
    "city": "Rayachoti",
    "lat": "14.0500",
    "lng": "78.7500",
    "country": "India",
    "iso2": "IN",
    "admin_name": "Andhra Pradesh",
    "capital": "",
    "population": "91234",
    "population_proper": "91234",
    "search": "రాయచోటి"
  },
  {
    "city": "Kavali",
    "lat": "14.9123",
    "lng": "79.9944",
    "country": "India",
    "iso2": "IN",
    "admin_name": "Andhra Pradesh",
    "capital": "",
    "population": "90099",
    "population_proper": "90099",
    "search": "కావాలి"
  },
  {
    "city": "Mancheral",
    "lat": "18.8679",
    "lng": "79.4639",
    "country": "India",
    "iso2": "IN",
    "admin_name": "Telangana",
    "capital": "",
    "population": "89935",
    "population_proper": "89935",
    "search": "మంచిర్యాల"
  },
  {
    "city": "Kadiri",
    "lat": "14.1200",
    "lng": "78.1700",
    "country": "India",
    "iso2": "IN",
    "admin_name": "Andhra Pradesh",
    "capital": "",
    "population": "89429",
    "population_proper": "89429",
    "search": "కదిరి"
  },
  {
    "city": "Ootacamund",
    "lat": "11.4086",
    "lng": "76.6939",
    "country": "India",
    "iso2": "IN",
    "admin_name": "Tamil Nadu",
    "capital": "",
    "population": "88430",
    "population_proper": "88430",
    "search": "ஊடகமுண்ட"
  },
  {
    "city": "Anakapalle",
    "lat": "17.6800",
    "lng": "83.0200",
    "country": "India",
    "iso2": "IN",
    "admin_name": "Andhra Pradesh",
    "capital": "",
    "population": "86519",
    "population_proper": "86519",
    "search": "అనకపల్లె"
  },
  {
    "city": "Sirsilla",
    "lat": "18.3800",
    "lng": "78.8300",
    "country": "India",
    "iso2": "IN",
    "admin_name": "Telangana",
    "capital": "",
    "population": "83186",
    "population_proper": "83186",
    "search": "సిరిసిల్ల"
  },
  {
    "city": "Kamareddipet",
    "lat": "18.3167",
    "lng": "78.3500",
    "country": "India",
    "iso2": "IN",
    "admin_name": "Telangana",
    "capital": "",
    "population": "80315",
    "population_proper": "80315",
    "search": "కామారెడ్డిపేట్"
  },
  {
    "city": "Paloncha",
    "lat": "17.5815",
    "lng": "80.6765",
    "country": "India",
    "iso2": "IN",
    "admin_name": "Telangana",
    "capital": "",
    "population": "80199",
    "population_proper": "80199",
    "search": "పాలోంచ"
  },
  {
    "city": "Kottagudem",
    "lat": "17.5500",
    "lng": "80.6300",
    "country": "India",
    "iso2": "IN",
    "admin_name": "Telangana",
    "capital": "",
    "population": "79819",
    "population_proper": "79819",
    "search": "కొత్తగూడెం"
  },
  {
    "city": "Tanuku",
    "lat": "16.7500",
    "lng": "81.7000",
    "country": "India",
    "iso2": "IN",
    "admin_name": "Andhra Pradesh",
    "capital": "",
    "population": "77962",
    "population_proper": "77962",
    "search": "తణుకు"
  },
  {
    "city": "Bodhan",
    "lat": "18.6700",
    "lng": "77.9000",
    "country": "India",
    "iso2": "IN",
    "admin_name": "Telangana",
    "capital": "",
    "population": "77573",
    "population_proper": "77573",
    "search": "బోధన్"
  },
  {
    "city": "Karur",
    "lat": "10.9504",
    "lng": "78.0833",
    "country": "India",
    "iso2": "IN",
    "admin_name": "Tamil Nadu",
    "capital": "",
    "population": "76915",
    "population_proper": "76915",
    "search": "கரூர்"
  },
  {
    "city": "Mangalagiri",
    "lat": "16.4300",
    "lng": "80.5500",
    "country": "India",
    "iso2": "IN",
    "admin_name": "Andhra Pradesh",
    "capital": "",
    "population": "73613",
    "population_proper": "73613",
    "search": "మంగళగిరి"
  },
  {
    "city": "Kairana",
    "lat": "29.4000",
    "lng": "77.2000",
    "country": "India",
    "iso2": "IN",
    "admin_name": "Uttar Pradesh",
    "capital": "",
    "population": "73046",
    "population_proper": "73046",
    "search": "कैराना"
  },
  {
    "city": "Markapur",
    "lat": "15.7350",
    "lng": "79.2700",
    "country": "India",
    "iso2": "IN",
    "admin_name": "Andhra Pradesh",
    "capital": "",
    "population": "71092",
    "population_proper": "71092",
    "search": "మార్కాపూర్"
  },
  {
    "city": "Malaut",
    "lat": "30.1900",
    "lng": "74.4990",
    "country": "India",
    "iso2": "IN",
    "admin_name": "Punjab",
    "capital": "",
    "population": "70958",
    "population_proper": "70958",
    "search": "ਮੈਲੌਟ"
  },
  {
    "city": "Bapatla",
    "lat": "15.8889",
    "lng": "80.4700",
    "country": "India",
    "iso2": "IN",
    "admin_name": "Andhra Pradesh",
    "capital": "",
    "population": "70777",
    "population_proper": "70777",
    "search": "బాపట్ల"
  },
  {
    "city": "Badvel",
    "lat": "14.7500",
    "lng": "79.0500",
    "country": "India",
    "iso2": "IN",
    "admin_name": "Andhra Pradesh",
    "capital": "",
    "population": "70626",
    "population_proper": "70626",
    "search": "బద్వేల్"
  },
  {
    "city": "Jorhat",
    "lat": "26.7500",
    "lng": "94.2167",
    "country": "India",
    "iso2": "IN",
    "admin_name": "Assam",
    "capital": "",
    "population": "69033",
    "population_proper": "69033",
    "search": "যোৰহাট"
  },
  {
    "city": "Koratla",
    "lat": "18.8200",
    "lng": "78.7200",
    "country": "India",
    "iso2": "IN",
    "admin_name": "Telangana",
    "capital": "",
    "population": "66504",
    "population_proper": "66504",
    "search": "కోరుట్ల"
  },
  {
    "city": "Pulivendla",
    "lat": "14.4167",
    "lng": "78.2333",
    "country": "India",
    "iso2": "IN",
    "admin_name": "Andhra Pradesh",
    "capital": "",
    "population": "65706",
    "population_proper": "65706",
    "search": "పులివెందుల"
  },
  {
    "city": "Jaisalmer",
    "lat": "26.9167",
    "lng": "70.9167",
    "country": "India",
    "iso2": "IN",
    "admin_name": "Rajasthan",
    "capital": "",
    "population": "65471",
    "population_proper": "65471",
    "search": "जैसलमेर"
  },
  {
    "city": "Tadepalle",
    "lat": "16.4667",
    "lng": "80.6000",
    "country": "India",
    "iso2": "IN",
    "admin_name": "Andhra Pradesh",
    "capital": "",
    "population": "64149",
    "population_proper": "64149",
    "search": "తాడేపల్లె"
  },
  {
    "city": "Armur",
    "lat": "18.7900",
    "lng": "78.2900",
    "country": "India",
    "iso2": "IN",
    "admin_name": "Telangana",
    "capital": "",
    "population": "64023",
    "population_proper": "64023",
    "search": "అర్ముర్"
  },
  {
    "city": "Jatani",
    "lat": "20.1700",
    "lng": "85.7000",
    "country": "India",
    "iso2": "IN",
    "admin_name": "Odisha",
    "capital": "",
    "population": "63697",
    "population_proper": "63697",
    "search": "ଜଟଣୀ"
  },
  {
    "city": "Gadwal",
    "lat": "16.2300",
    "lng": "77.8000",
    "country": "India",
    "iso2": "IN",
    "admin_name": "Telangana",
    "capital": "",
    "population": "63177",
    "population_proper": "63177",
    "search": "గద్వాల్"
  },
  {
    "city": "Nagari",
    "lat": "13.3300",
    "lng": "79.5800",
    "country": "India",
    "iso2": "IN",
    "admin_name": "Andhra Pradesh",
    "capital": "",
    "population": "62253",
    "population_proper": "62253",
    "search": "నగరి"
  },
  {
    "city": "Wanparti",
    "lat": "16.3610",
    "lng": "78.0627",
    "country": "India",
    "iso2": "IN",
    "admin_name": "Telangana",
    "capital": "",
    "population": "60949",
    "population_proper": "60949",
    "search": "వనపర్తి"
  },
  {
    "city": "Ponnuru",
    "lat": "16.0667",
    "lng": "80.5667",
    "country": "India",
    "iso2": "IN",
    "admin_name": "Andhra Pradesh",
    "capital": "",
    "population": "59913",
    "population_proper": "59913",
    "search": "పొన్నూరు"
  },
  {
    "city": "Vinukonda",
    "lat": "16.0500",
    "lng": "79.7500",
    "country": "India",
    "iso2": "IN",
    "admin_name": "Andhra Pradesh",
    "capital": "",
    "population": "59725",
    "population_proper": "59725",
    "search": "వినుకొండ"
  },
  {
    "city": "Itanagar",
    "lat": "27.1000",
    "lng": "93.6200",
    "country": "India",
    "iso2": "IN",
    "admin_name": "Arunachal Pradesh",
    "capital": "admin",
    "population": "59490",
    "population_proper": "59490",
    "search": "ইটানগৰ"
  },
  {
    "city": "Tezpur",
    "lat": "26.6338",
    "lng": "92.8000",
    "country": "India",
    "iso2": "IN",
    "admin_name": "Assam",
    "capital": "",
    "population": "58851",
    "population_proper": "58851",
    "search": "তেজপুৰ"
  },
  {
    "city": "Narasapur",
    "lat": "16.4333",
    "lng": "81.6833",
    "country": "India",
    "iso2": "IN",
    "admin_name": "Andhra Pradesh",
    "capital": "",
    "population": "58770",
    "population_proper": "58770",
    "search": "నరసాపూర్"
  },
  {
    "city": "Kothapet",
    "lat": "19.3333",
    "lng": "79.4833",
    "country": "India",
    "iso2": "IN",
    "admin_name": "Telangana",
    "capital": "",
    "population": "57583",
    "population_proper": "57583",
    "search": "కొత్తపేట"
  },
  {
    "city": "Macherla",
    "lat": "16.4800",
    "lng": "79.4300",
    "country": "India",
    "iso2": "IN",
    "admin_name": "Andhra Pradesh",
    "capital": "",
    "population": "57290",
    "population_proper": "57290",
    "search": "మాచెర్ల"
  },
  {
    "city": "Kandukur",
    "lat": "15.2165",
    "lng": "79.9042",
    "country": "India",
    "iso2": "IN",
    "admin_name": "Andhra Pradesh",
    "capital": "",
    "population": "57246",
    "population_proper": "57246",
    "search": "కందుకూరు"
  },
  {
    "city": "Samalkot",
    "lat": "17.0531",
    "lng": "82.1695",
    "country": "India",
    "iso2": "IN",
    "admin_name": "Andhra Pradesh",
    "capital": "",
    "population": "56864",
    "population_proper": "56864",
    "search": "సమాల్కోట్"
  },
  {
    "city": "Bobbili",
    "lat": "18.5667",
    "lng": "83.4167",
    "country": "India",
    "iso2": "IN",
    "admin_name": "Andhra Pradesh",
    "capital": "",
    "population": "56819",
    "population_proper": "56819",
    "search": "బొబ్బిలి"
  },
  {
    "city": "Sattenapalle",
    "lat": "16.3962",
    "lng": "80.1497",
    "country": "India",
    "iso2": "IN",
    "admin_name": "Andhra Pradesh",
    "capital": "",
    "population": "56721",
    "population_proper": "56721",
    "search": "సత్తెనపల్లె"
  },
  {
    "city": "Vrindavan",
    "lat": "27.5806",
    "lng": "77.7006",
    "country": "India",
    "iso2": "IN",
    "admin_name": "Uttar Pradesh",
    "capital": "",
    "population": "56618",
    "population_proper": "56618",
    "search": "वृन्दावन"
  },
  {
    "city": "Mandapeta",
    "lat": "16.8700",
    "lng": "81.9300",
    "country": "India",
    "iso2": "IN",
    "admin_name": "Andhra Pradesh",
    "capital": "",
    "population": "56063",
    "population_proper": "56063",
    "search": "మండపేట"
  },
  {
    "city": "Belampalli",
    "lat": "19.0558",
    "lng": "79.4931",
    "country": "India",
    "iso2": "IN",
    "admin_name": "Telangana",
    "capital": "",
    "population": "55841",
    "population_proper": "55841",
    "search": "బెల్లంపల్లి"
  },
  {
    "city": "Bhimunipatnam",
    "lat": "17.8864",
    "lng": "83.4471",
    "country": "India",
    "iso2": "IN",
    "admin_name": "Andhra Pradesh",
    "capital": "",
    "population": "55082",
    "population_proper": "55082",
    "search": "భీమునిపట్నం"
  },
  {
    "city": "Nandod",
    "lat": "21.8704",
    "lng": "73.5026",
    "country": "India",
    "iso2": "IN",
    "admin_name": "Gujarat",
    "capital": "",
    "population": "54923",
    "population_proper": "54923",
    "search": "નાંદોદ"
  },
  {
    "city": "Pithapuram",
    "lat": "17.1167",
    "lng": "82.2667",
    "country": "India",
    "iso2": "IN",
    "admin_name": "Andhra Pradesh",
    "capital": "",
    "population": "54859",
    "population_proper": "54859",
    "search": "పిఠాపురం"
  },
  {
    "city": "Punganuru",
    "lat": "13.3667",
    "lng": "78.5833",
    "country": "India",
    "iso2": "IN",
    "admin_name": "Andhra Pradesh",
    "capital": "",
    "population": "54746",
    "population_proper": "54746",
    "search": "పుంగనూరు"
  },
  {
    "city": "Puttur",
    "lat": "13.4500",
    "lng": "79.5500",
    "country": "India",
    "iso2": "IN",
    "admin_name": "Andhra Pradesh",
    "capital": "",
    "population": "54092",
    "population_proper": "54092",
    "search": "పుత్తూరు"
  },
  {
    "city": "Jalor",
    "lat": "25.3500",
    "lng": "72.6167",
    "country": "India",
    "iso2": "IN",
    "admin_name": "Rajasthan",
    "capital": "",
    "population": "54081",
    "population_proper": "54081",
    "search": "जालोर"
  },
  {
    "city": "Palmaner",
    "lat": "13.2000",
    "lng": "78.7500",
    "country": "India",
    "iso2": "IN",
    "admin_name": "Andhra Pradesh",
    "capital": "",
    "population": "54035",
    "population_proper": "54035",
    "search": "పలమనేరు"
  },
  {
    "city": "Dholka",
    "lat": "22.7200",
    "lng": "72.4700",
    "country": "India",
    "iso2": "IN",
    "admin_name": "Gujarat",
    "capital": "",
    "population": "53792",
    "population_proper": "53792",
    "search": "ધોળકા"
  },
  {
    "city": "Jaggayyapeta",
    "lat": "16.8920",
    "lng": "80.0976",
    "country": "India",
    "iso2": "IN",
    "admin_name": "Telangana",
    "capital": "",
    "population": "53530",
    "population_proper": "53530",
    "search": "జగ్గయ్యపేట"
  },
  {
    "city": "Tuni",
    "lat": "17.3500",
    "lng": "82.5500",
    "country": "India",
    "iso2": "IN",
    "admin_name": "Andhra Pradesh",
    "capital": "",
    "population": "53425",
    "population_proper": "53425",
    "search": "తుని"
  },
  {
    "city": "Amalapuram",
    "lat": "16.5833",
    "lng": "82.0167",
    "country": "India",
    "iso2": "IN",
    "admin_name": "Andhra Pradesh",
    "capital": "",
    "population": "53231",
    "population_proper": "53231",
    "search": "అమలాపురం"
  },
  {
    "city": "Jagtial",
    "lat": "18.8000",
    "lng": "78.9300",
    "country": "India",
    "iso2": "IN",
    "admin_name": "Telangana",
    "capital": "",
    "population": "53213",
    "population_proper": "53213",
    "search": "జగ్తిఅల్"
  },
  {
    "city": "Vikarabad",
    "lat": "17.3300",
    "lng": "77.9000",
    "country": "India",
    "iso2": "IN",
    "admin_name": "Telangana",
    "capital": "",
    "population": "53143",
    "population_proper": "53143",
    "search": "వికారాబాద్"
  },
  {
    "city": "Venkatagiri",
    "lat": "13.9667",
    "lng": "79.5833",
    "country": "India",
    "iso2": "IN",
    "admin_name": "Andhra Pradesh",
    "capital": "",
    "population": "52688",
    "population_proper": "52688",
    "search": "వేంకటగిరి"
  },
  {
    "city": "Sihor",
    "lat": "21.7000",
    "lng": "71.9700",
    "country": "India",
    "iso2": "IN",
    "admin_name": "Gujarat",
    "capital": "",
    "population": "52603",
    "population_proper": "52603",
    "search": "સિહોર"
  },
  {
    "city": "Jangaon",
    "lat": "17.7200",
    "lng": "79.1800",
    "country": "India",
    "iso2": "IN",
    "admin_name": "Telangana",
    "capital": "",
    "population": "52394",
    "population_proper": "52394",
    "search": "జంగాఒన్"
  },
  {
    "city": "Mandamari",
    "lat": "18.9822",
    "lng": "79.4811",
    "country": "India",
    "iso2": "IN",
    "admin_name": "Telangana",
    "capital": "",
    "population": "52352",
    "population_proper": "52352",
    "search": "మందమరి"
  },
  {
    "city": "Metpalli",
    "lat": "18.8297",
    "lng": "78.5878",
    "country": "India",
    "iso2": "IN",
    "admin_name": "Telangana",
    "capital": "",
    "population": "50902",
    "population_proper": "50902",
    "search": "మెట్పల్లి"
  },
  {
    "city": "Repalle",
    "lat": "16.0200",
    "lng": "80.8500",
    "country": "India",
    "iso2": "IN",
    "admin_name": "Andhra Pradesh",
    "capital": "",
    "population": "50866",
    "population_proper": "50866",
    "search": "రేపల్లె"
  },
  {
    "city": "Bhainsa",
    "lat": "19.1000",
    "lng": "77.9667",
    "country": "India",
    "iso2": "IN",
    "admin_name": "Telangana",
    "capital": "",
    "population": "49764",
    "population_proper": "49764",
    "search": "భైన్స"
  },
  {
    "city": "Jasdan",
    "lat": "22.0300",
    "lng": "71.2000",
    "country": "India",
    "iso2": "IN",
    "admin_name": "Gujarat",
    "capital": "",
    "population": "48483",
    "population_proper": "48483",
    "search": "જસદણ"
  },
  {
    "city": "Jammalamadugu",
    "lat": "14.8500",
    "lng": "78.3800",
    "country": "India",
    "iso2": "IN",
    "admin_name": "Andhra Pradesh",
    "capital": "",
    "population": "46069",
    "population_proper": "46069",
    "search": "జమ్మలమడుగు"
  },
  {
    "city": "Rameswaram",
    "lat": "9.2800",
    "lng": "79.3000",
    "country": "India",
    "iso2": "IN",
    "admin_name": "Tamil Nadu",
    "capital": "",
    "population": "44856",
    "population_proper": "44856",
    "search": "ராமேஸ்வரம்"
  },
  {
    "city": "Addanki",
    "lat": "15.8110",
    "lng": "79.9738",
    "country": "India",
    "iso2": "IN",
    "admin_name": "Andhra Pradesh",
    "capital": "",
    "population": "43850",
    "population_proper": "43850",
    "search": "అడ్డంకి"
  },
  {
    "city": "Nidadavole",
    "lat": "16.9200",
    "lng": "81.6700",
    "country": "India",
    "iso2": "IN",
    "admin_name": "Andhra Pradesh",
    "capital": "",
    "population": "43809",
    "population_proper": "43809",
    "search": "నిడదవోలు"
  },
  {
    "city": "Bodupal",
    "lat": "17.4139",
    "lng": "78.5783",
    "country": "India",
    "iso2": "IN",
    "admin_name": "Telangana",
    "capital": "",
    "population": "43692",
    "population_proper": "43692",
    "search": "బోడుప్పల్"
  },
  {
    "city": "Rajgir",
    "lat": "25.0300",
    "lng": "85.4200",
    "country": "India",
    "iso2": "IN",
    "admin_name": "Bihar",
    "capital": "",
    "population": "41587",
    "population_proper": "41587",
    "search": "राजगीर"
  },
  {
    "city": "Rajaori",
    "lat": "33.3800",
    "lng": "74.3000",
    "country": "India",
    "iso2": "IN",
    "admin_name": "Jammu and Kashmir",
    "capital": "",
    "population": "41552",
    "population_proper": "41552",
    "search": "राजौरी"
  },
  {
    "city": "Naini Tal",
    "lat": "29.3919",
    "lng": "79.4542",
    "country": "India",
    "iso2": "IN",
    "admin_name": "Uttarakhand",
    "capital": "",
    "population": "41377",
    "population_proper": "41377",
    "search": "नैनी ताल"
  },
  {
    "city": "Channarayapatna",
    "lat": "12.9000",
    "lng": "76.3900",
    "country": "India",
    "iso2": "IN",
    "admin_name": "Karnataka",
    "capital": "",
    "population": "40400",
    "population_proper": "40400",
    "search": "ಚನ್ನರಾಯಪಟ್ಟಣ"
  },
  {
    "city": "Maihar",
    "lat": "24.2700",
    "lng": "80.7500",
    "country": "India",
    "iso2": "IN",
    "admin_name": "Madhya Pradesh",
    "capital": "",
    "population": "40192",
    "population_proper": "40192",
    "search": "मैहर"
  },
  {
    "city": "Panaji",
    "lat": "15.4800",
    "lng": "73.8300",
    "country": "India",
    "iso2": "IN",
    "admin_name": "Goa",
    "capital": "admin",
    "population": "40017",
    "population_proper": "40017",
    "search": "पणजी"
  },
  {
    "city": "Junnar",
    "lat": "19.2000",
    "lng": "73.8800",
    "country": "India",
    "iso2": "IN",
    "admin_name": "Maharashtra",
    "capital": "",
    "population": "40000",
    "population_proper": "40000",
    "search": "जुन्नर"
  },
  {
    "city": "Amudalavalasa",
    "lat": "18.4167",
    "lng": "83.9000",
    "country": "India",
    "iso2": "IN",
    "admin_name": "Andhra Pradesh",
    "capital": "",
    "population": "39799",
    "population_proper": "39799",
    "search": "ఆముదాలవలస"
  },
  {
    "city": "Daman",
    "lat": "20.4170",
    "lng": "72.8500",
    "country": "India",
    "iso2": "IN",
    "admin_name": "Gujarat",
    "capital": "admin",
    "population": "39737",
    "population_proper": "39737",
    "search": "દમણ"
  },
  {
    "city": "Kovvur",
    "lat": "17.0167",
    "lng": "81.7333",
    "country": "India",
    "iso2": "IN",
    "admin_name": "Andhra Pradesh",
    "capital": "",
    "population": "39667",
    "population_proper": "39667",
    "search": "కొవ్వూరు"
  },
  {
    "city": "Solan",
    "lat": "30.9200",
    "lng": "77.1200",
    "country": "India",
    "iso2": "IN",
    "admin_name": "Himachal Pradesh",
    "capital": "",
    "population": "39256",
    "population_proper": "39256",
    "search": "सोलन"
  },
  {
    "city": "Dwarka",
    "lat": "22.2403",
    "lng": "68.9686",
    "country": "India",
    "iso2": "IN",
    "admin_name": "Gujarat",
    "capital": "",
    "population": "38873",
    "population_proper": "38873",
    "search": "દ્વારકા"
  },
  {
    "city": "Pathanamthitta",
    "lat": "9.2647",
    "lng": "76.7872",
    "country": "India",
    "iso2": "IN",
    "admin_name": "Kerala",
    "capital": "",
    "population": "37802",
    "population_proper": "37802",
    "search": "പത്തനംതിട്ട"
  },
  {
    "city": "Kodaikanal",
    "lat": "10.2300",
    "lng": "77.4800",
    "country": "India",
    "iso2": "IN",
    "admin_name": "Tamil Nadu",
    "capital": "",
    "population": "36501",
    "population_proper": "36501",
    "search": "கொடைக்கானல்"
  },
  {
    "city": "Udhampur",
    "lat": "32.9300",
    "lng": "75.1300",
    "country": "India",
    "iso2": "IN",
    "admin_name": "Jammu and Kashmir",
    "capital": "",
    "population": "35507",
    "population_proper": "35507",
    "search": "उधमपुर"
  },
  {
    "city": "Giddalur",
    "lat": "15.3784",
    "lng": "78.9265",
    "country": "India",
    "iso2": "IN",
    "admin_name": "Andhra Pradesh",
    "capital": "",
    "population": "35150",
    "population_proper": "35150",
    "search": "గిద్దలూరు"
  },
  {
    "city": "Yellandu",
    "lat": "17.6000",
    "lng": "80.3300",
    "country": "India",
    "iso2": "IN",
    "admin_name": "Telangana",
    "capital": "",
    "population": "35056",
    "population_proper": "35056",
    "search": "ఎల్లాండు"
  },
  {
    "city": "Shrirangapattana",
    "lat": "12.4181",
    "lng": "76.6947",
    "country": "India",
    "iso2": "IN",
    "admin_name": "Karnataka",
    "capital": "",
    "population": "34135",
    "population_proper": "34135",
    "search": "ಶ್ರೀರಂಗಪಟ್ಟಣ"
  },
  {
    "city": "Angamali",
    "lat": "10.1960",
    "lng": "76.3860",
    "country": "India",
    "iso2": "IN",
    "admin_name": "Kerala",
    "capital": "",
    "population": "33424",
    "population_proper": "33424",
    "search": "അങ്കമാലി"
  },
  {
    "city": "Umaria",
    "lat": "23.5245",
    "lng": "80.8365",
    "country": "India",
    "iso2": "IN",
    "admin_name": "Madhya Pradesh",
    "capital": "",
    "population": "33114",
    "population_proper": "33114",
    "search": "उमरिअ"
  },
  {
    "city": "Fatehpur Sikri",
    "lat": "27.0911",
    "lng": "77.6611",
    "country": "India",
    "iso2": "IN",
    "admin_name": "Uttar Pradesh",
    "capital": "",
    "population": "32905",
    "population_proper": "32905",
    "search": "फतेहपुर सिकरी"
  },
  {
    "city": "Mangur",
    "lat": "17.9373",
    "lng": "80.8185",
    "country": "India",
    "iso2": "IN",
    "admin_name": "Telangana",
    "capital": "",
    "population": "32091",
    "population_proper": "32091",
    "search": "మంగూర్"
  },
  {
    "city": "Pedana",
    "lat": "16.2667",
    "lng": "81.1667",
    "country": "India",
    "iso2": "IN",
    "admin_name": "Andhra Pradesh",
    "capital": "",
    "population": "30721",
    "population_proper": "30721",
    "search": "పెడన"
  },